[
    {
        "id": 1,
        "name": "Casa de Luz",
        "sub_name": "off South Lamar",
        "categories": ["Vegan", "Salad", "Soup"],
        "site": "https://www.casadeluz.org/",
        "menu": "https://www.casadeluz.org/eat-drink",
        "organic": true,
        "local": true,
        "vegetarian": true,
        "vegan": true,
        "keto": false,
        "indoor": true,
        "outdoor": true,
        "price": 2,
        "coords": [{"lat": 30.279746, "lon": -97.720304}, {"lat": 30.264509, "lon": -97.761589}],
        "zips": [78702, 78704],
        "kids": ["kid's plate"],
        "playground": true,
        "playarea": true,
        "enabled": true,
        "deleted": false
    },
    {
        "id": 2,
        "name": "Counter Culture",
        "sub_name": "East Cesar Chavez",
        "categories": ["Vegan", "Vegetarian", "Live/Raw"],
        "site": "http://countercultureaustin.com/",
        "menu": "https://countercultureaustin.com/",
        "organic": true,
        "local": true,
        "vegetarian": true,
        "vegan": true,
        "keto": false,
        "indoor": true,
        "outdoor": true,
        "price": 2,
        "coords": [],
        "zips": [78702],
        "kids": ["roasted sweets and beets", "peanut butter apple sandwich"],
        "playground": false,
        "playarea": false,
        "enabled": false,
        "deleted": true
    },
    {
        "id": 3,
        "name": "Pacha",
        "sub_name": "Guadalupe",
        "categories": ["Coffee & Tea", "Breakfast & Brunch"],
        "site": "http://www.pachacafe.com/",
        "menu": "https://pachacafe.com/wpdir/menu/",
        "organic": true,
        "local": true,
        "vegetarian": false,
        "vegan": false,
        "keto": true,
        "indoor": true,
        "outdoor": true,
        "price": 1,
        "coords": [],
        "zips": [78705],
        "kids": ["eggs", "tomales"],
        "playground": false,
        "playarea": false,
        "enabled": false,
        "deleted": true
    },
    {
        "id": 4,
        "name": "Tacodeli",
        "sub_name": "Multiple Locations",
        "categories": ["Tacos", "Breakfast & Brunch", "Seafood"],
        "site": "https://www.tacodeli.com/",
        "menu": "https://www.tacodeli.com/menu/",
        "organic": true,
        "local": true,
        "vegetarian": false,
        "vegan": false,
        "keto": true,
        "indoor": true,
        "outdoor": true,
        "price": 1,
        "coords": [{"lat": 30.265377, "lon": -97.743530}, {"lat": 30.258818, "lon": -97.786956}, {"lat": 30.310701, "lon": -97.740059}, {"lat": 30.349079, "lon": -97.734741}, {"lat": 30.407471, "lon": -97.713188}],
        "zips": [78701, 78746, 78756, 78757, 78758],
        "kids": ["double-corn taco: eggs, avocado, whole black beans, mushrooms"],
        "playground": false,
        "playarea": true,
        "enabled": true,
        "deleted": false
    },
    {
        "id": 5,
        "name": "Flower Child",
        "sub_name": "Multiple Locations",
        "categories": ["Salad", "American (New)", "Vegetarian"],
        "site": "https://www.iamaflowerchild.com/locations/austin-tx-domain/",
        "menu": "https://www.iamaflowerchild.com/locations/austin-tx-domain/menus/main-menu/",
        "organic": true,
        "local": false,
        "vegetarian": false,
        "vegan": false,
        "keto": true,
        "indoor": true,
        "outdoor": true,
        "price": 2,
        "coords": [{"lat": 30.265882, "lon": -97.748924}, {"lat": 30.275847, "lon": -97.800205}, {"lat": 30.403681, "lon": -97.721558}],
        "zips": [78701, 78746, 78758],
        "kids": ["kid's chicken plate", "salmon", "corn/quinoa", "flying avocado wrap"],
        "playground": true,
        "playarea": true,
        "enabled": true,
        "deleted": false
    },
    {
        "id": 6,
        "name": "Bouldin Creek Cafe",
        "sub_name": "South First",
        "categories": ["Vegetarian", "Cafes", "Vegan"],
        "site": "https://bouldincreekcafe.com/",
        "menu": "https://bouldincreekcafe.com/",
        "organic": false,
        "local": true,
        "vegetarian": true,
        "vegan": false,
        "keto": true,
        "indoor": true,
        "outdoor": true,
        "price": 2,
        "coords": [{"lat": 30.246460, "lon": -97.756767}],
        "zips": [78704],
        "kids": ["breakfast tacos w/ extra tortillas", "eggs", "avocado rolls"],
        "playground": false,
        "playarea": false,
        "enabled": true,
        "deleted": false
    },
    {
        "id": 7,
        "name": "Modern Market",
        "sub_name": "Multiple Locations",
        "categories": ["Salad", "Sandwiches"],
        "site": "https://modernmarket.com/",
        "menu": "https://modernmarket.com/",
        "organic": true,
        "local": true,
        "vegetarian": false,
        "vegan": false,
        "keto": true,
        "indoor": true,
        "outdoor": true,
        "price": 2,
        "coords": [{"lat": 30.266455, "lon": -97.743118}, {"lat": 30.272055, "lon": -97.800926}, {"lat": 30.395165, "lon": -97.748724}],
        "zips": [78701, 78746, 78759],
        "kids": ["kid's chicken plate", "salmon", "soup"],
        "playground": false,
        "playarea": false,
        "enabled": true,
        "deleted": false
    },
    {
        "id": 8,
        "name": "Honest Mary's",
        "sub_name": "Multiple Locations",
        "categories": ["American (New)"],
        "site": "https://www.honestmarys.com/",
        "menu": "https://www.honestmarys.com/menus",
        "organic": true,
        "local": true,
        "vegetarian": false,
        "vegan": false,
        "keto": true,
        "indoor": true,
        "outdoor": true,
        "price": 2,
        "coords": [{"lat": 30.299574, "lon": -97.704094}, {"lat": 30.318859, "lon": -97.739548}, {"lat": 30.395165, "lon": -97.748724}],
        "zips": [78723, 78756, 78759],
        "kids": ["build: quinoa, beets, mushrooms, sweet potatoes, avocado, pumpkin seeds, lemon garlic"],
        "playground": false,
        "playarea": false,
        "enabled": true,
        "deleted": false
    },
    {
        "id": 9,
        "name": "Ranch Hand",
        "sub_name": "Menchaca (at Armadillo Den)",
        "categories": ["Food Trucks", "American (New)"],
        "site": "https://www.weareranchhand.com/",
        "menu": "https://www.weareranchhand.com/",
        "organic": true,
        "local": true,
        "vegetarian": false,
        "vegan": false,
        "keto": false,
        "indoor": false,
        "outdoor": false,
        "price": 2,
        "coords": [],
        "zips": [78748],
        "kids": [],
        "playground": false,
        "playarea": false,
        "enabled": false,
        "deleted": false
    },
    {
        "id": 10,
        "name": "Vinaigrette",
        "sub_name": "off South Congress",
        "categories": ["Salad", "Soup", "Sandwiches"],
        "site": "https://www.vinaigretteonline.com/",
        "menu": "https://www.vinaigretteonline.com/menus",
        "organic": true,
        "local": true,
        "vegetarian": false,
        "vegan": false,
        "keto": true,
        "indoor": true,
        "outdoor": true,
        "price": 2,
        "coords": [{"lat": 30.241282, "lon": -97.752013}],
        "zips": [78704],
        "kids": ["soup", "roasted veggie sammie", "salmon"],
        "playground": false,
        "playarea": false,
        "enabled": true,
        "deleted": false
    },
    {
        "id": 11,
        "name": "Sala and Betty",
        "sub_name": "off Airport",
        "categories": ["American (New)", "Diners", "Sandwiches"],
        "site": "http://www.salaandbettyatx.com/",
        "menu": "http://www.salaandbettyatx.com/menus/",
        "organic": false,
        "local": true,
        "vegetarian": false,
        "vegan": false,
        "keto": false,
        "indoor": true,
        "outdoor": true,
        "price": 2,
        "coords": [],
        "zips": [78751],
        "kids": [],
        "playground": false,
        "playarea": false,
        "enabled": false,
        "deleted": true
    },
    {
        "id": 12,
        "name": "Cenote",
        "sub_name": "East Cesar Chavez",
        "categories": ["Coffee & Tea", "Tacos", "American (New)"],
        "site": "http://cenoteaustin.com",
        "menu": "https://cenoteaustin.com/food/east-austin/weekday/",
        "organic": true,
        "local": true,
        "vegetarian": false,
        "vegan": false,
        "keto": false,
        "indoor": true,
        "outdoor": true,
        "price": 2,
        "coords": [{"lat": 30.260500, "lon": -97.733948}],
        "zips": [78702],
        "kids": ["scrambled eggs", "avocado", "tortillas"],
        "playground": false,
        "playarea": true,
        "enabled": true,
        "deleted": false
    },
    {
        "id": 13,
        "name": "Salty Sow",
        "sub_name": "Manor",
        "categories": ["American (Traditional)", "Gastropubs"],
        "site": "http://www.saltysow.com/",
        "menu": "http://www.saltysow.com/#/locations",
        "organic": false,
        "local": true,
        "vegetarian": false,
        "vegan": false,
        "keto": false,
        "indoor": true,
        "outdoor": true,
        "price": 2,
        "coords": [{"lat": 30.283795, "lon": -97.721271}],
        "zips": [78722],
        "kids": ["roasted organic beets", "tacos"],
        "playground": false,
        "playarea": false,
        "enabled": true,
        "deleted": false
    },
    {
        "id": 14,
        "name": "Odd Duck",
        "sub_name": "South Lamar",
        "categories": ["American (Traditional)", "Bars"],
        "site": "https://oddduckaustin.com/",
        "menu": "https://oddduckaustin.com/",
        "organic": false,
        "local": true,
        "vegetarian": false,
        "vegan": false,
        "keto": true,
        "indoor": true,
        "outdoor": true,
        "price": 3,
        "coords": [{"lat": 30.254740, "lon": -97.762001}],
        "zips": [78704],
        "kids": [],
        "playground": false,
        "playarea": false,
        "enabled": true,
        "deleted": false
    },
    {
        "id": 15,
        "name": "Sour Duck Market",
        "sub_name": "East Martin Luther King Jr",
        "categories": ["Bakeries", "Beer", "Wine & Spirits", "Smokehouse"],
        "site": "https://www.sourduckmarket.com/",
        "menu": "https://www.sourduckmarket.com/",
        "organic": false,
        "local": true,
        "vegetarian": false,
        "vegan": false,
        "keto": false,
        "indoor": true,
        "outdoor": true,
        "price": 2,
        "coords": [{"lat": 30.279900, "lon": -97.721558}],
        "zips": [78702],
        "kids": ["breakfast tacos", "egg sandwich"],
        "playground": false,
        "playarea": true,
        "enabled": true,
        "deleted": false
    },
    {
        "id": 16,
        "name": "Thai Fresh",
        "sub_name": "West Mary",
        "categories": ["Thai", "Coffee & Tea", "Desserts"],
        "site": "https://www.thai-fresh.com/",
        "menu": "https://www.thai-fresh.com/menu-hours",
        "organic": false,
        "local": true,
        "vegetarian": false,
        "vegan": false,
        "keto": false,
        "indoor": true,
        "outdoor": true,
        "price": 2,
        "coords": [{"lat": 30.247890, "lon": -97.761757}],
        "zips": [78704],
        "kids": [],
        "playground": false,
        "playarea": false,
        "enabled": true,
        "deleted": false
    },
    {
        "id": 17,
        "name": "Takoba",
        "sub_name": "off East 7th",
        "categories": ["Mexican", "Sports Bars", "Cocktail Bars"],
        "site": "http://takobarestaurant.com/",
        "menu": "https://www.zomato.com/austin/takoba-east-cesar-chavez/menu",
        "organic": false,
        "local": false,
        "vegetarian": false,
        "vegan": false,
        "keto": false,
        "indoor": true,
        "outdoor": true,
        "price": 2,
        "coords": [],
        "zips": [78702],
        "kids": [],
        "playground": false,
        "playarea": false,
        "enabled": false,
        "deleted": false
    },
    {
        "id": 18,
        "name": "Eastside Cafe",
        "sub_name": "off Manor Rd",
        "categories": ["American (Traditional)", "Bars"],
        "site": "https://eastsidecafeaustin.com/",
        "menu": "http://eastsidecafeaustin.com/menu/",
        "organic": false,
        "local": true,
        "vegetarian": false,
        "vegan": false,
        "keto": false,
        "indoor": true,
        "outdoor": false,
        "price": 2,
        "coords": [],
        "zips": [78722],
        "kids": [],
        "playground": false,
        "playarea": false,
        "enabled": false,
        "deleted": true
    },
    {
        "id": 19,
        "name": "Greenhouse Craft Food",
        "sub_name": "Round Rock",
        "categories": ["American (New)", "Sandwiches", "Breakfast & Brunch"],
        "site": "https://www.greenhousecraftfood.com/",
        "menu": "https://www.greenhousecraftfood.com/menu",
        "organic": false,
        "local": true,
        "vegetarian": false,
        "vegan": false,
        "keto": false,
        "indoor": true,
        "outdoor": true,
        "price": 2,
        "coords": [],
        "zips": [78664],
        "kids": ["burger"],
        "playground": false,
        "playarea": false,
        "enabled": false,
        "deleted": true
    },
    {
        "id": 20,
        "name": "Citizen Eatery",
        "sub_name": "Burnet",
        "categories": ["Vegetarian", "Vegan", "Breakfast & Brunch"],
        "site": "https://www.citizeneatery.com/",
        "menu": "https://www.citizeneatery.com/menu/",
        "organic": true,
        "local": true,
        "vegetarian": true,
        "vegan": true,
        "keto": false,
        "indoor": true,
        "outdoor": false,
        "price": 2,
        "coords": [],
        "zips": [78756],
        "kids": ["pesto zucchini noodles w/ black beans"],
        "playground": false,
        "playarea": false,
        "enabled": false,
        "deleted": true
    },
    {
        "id": 21,
        "name": "Picnik",
        "sub_name": "Multiple Locations",
        "categories": ["American (New)", "Gluten-Free", "Breakfast & Brunch"],
        "site": "https://www.picnikaustin.com/",
        "menu": "https://www.picnikaustin.com/",
        "organic": false,
        "local": true,
        "vegetarian": false,
        "vegan": false,
        "keto": false,
        "indoor": true,
        "outdoor": false,
        "price": 2,
        "coords": [{"lat": 30.318741, "lon": -97.739067}],
        "zips": [78756],
        "kids": ["breakfast tacos"],
        "playground": false,
        "playarea": false,
        "enabled": true,
        "deleted": false
    },
    {
        "id": 22,
        "name": "Contigo",
        "sub_name": "off Airport",
        "categories": ["Bars", "American (Traditional)"],
        "site": "https://www.contigotexas.com/",
        "menu": "https://contigotexas.com/restaurant/menus/",
        "organic": false,
        "local": true,
        "vegetarian": false,
        "vegan": false,
        "keto": false,
        "indoor": true,
        "outdoor": true,
        "price": 2,
        "coords": [],
        "zips": [78723],
        "kids": ["burger"],
        "playground": false,
        "playarea": false,
        "enabled": false,
        "deleted": true
    },
    {
        "id": 23,
        "name": "Austin Rotisserie",
        "sub_name": "Fairground Food Hall",
        "categories": ["Comfort Food", "French", "Sandwiches"],
        "site": "https://austinrotisserie.com/",
        "menu": "https://austinrotisserie.com/",
        "organic": false,
        "local": false,
        "vegetarian": false,
        "vegan": false,
        "keto": false,
        "indoor": true,
        "outdoor": true,
        "price": 1,
        "coords": [{"lat": 30.263244, "lon": -97.743418}],
        "zips": [78701],
        "kids": ["tacos", "roasted chicken"],
        "playground": false,
        "playarea": false,
        "enabled": true,
        "deleted": false
    },
    {
        "id": 24,
        "name": "Maudie's Tex-Mex",
        "sub_name": "Multiple Locations",
        "categories": ["Tex-Mex", "Diners", "Tacos", "Mexican"],
        "site": "https://www.maudies.com",
        "menu": "https://www.maudies.com/menu/appetizers/",
        "organic": false,
        "local": true,
        "vegetarian": false,
        "vegan": false,
        "keto": false,
        "indoor": true,
        "outdoor": false,
        "price": 2,
        "coords": [{"lat": 30.282820, "lon": -97.775574}, {"lat": 30.254655, "lon": -97.762747}, {"lat": 30.336491, "lon": -97.804642}, {"lat": 30.184181, "lon": -97.847871}, {"lat": 30.372009, "lon": -97.691384}],
        "zips": [78703, 78704, 78746, 78748, 78753],
        "kids": ["scrambled eggs", "black beans", "avocado", "tortillas"],
        "playground": false,
        "playarea": false,
        "enabled": true,
        "deleted": false
    },
    {
        "id": 25,
        "name": "Fresa's",
        "sub_name": "Multiple Locations",
        "categories": ["Mexican"],
        "site": "https://www.fresaschicken.com/",
        "menu": "https://www.fresaschicken.com/#lunch-dinner",
        "organic": false,
        "local": false,
        "vegetarian": false,
        "vegan": false,
        "keto": false,
        "indoor": true,
        "outdoor": true,
        "price": 2,
        "coords": [{"lat": 30.274481, "lon": -97.752151}, {"lat": 30.247890, "lon": -97.755318}, {"lat": 30.335013, "lon": -97.808946}],
        "zips": [78703, 78704, 78746],
        "kids": ["taco", "bol"],
        "playground": false,
        "playarea": false,
        "enabled": true,
        "deleted": false
    },
    {
        "id": 26,
        "name": "Kerbey Lane Cafe",
        "sub_name": "Multiple Locations",
        "categories": ["American (Traditional)", "Breakfast & Brunch", "Tex-Mex"],
        "site": "https://kerbeylanecafe.com/",
        "menu": "https://kerbeylanecafe.com/menu",
        "organic": false,
        "local": false,
        "vegetarian": false,
        "vegan": false,
        "keto": false,
        "indoor": true,
        "outdoor": true,
        "price": 2,
        "coords": [{"lat": 30.511841, "lon": -97.680458}, {"lat": 30.241800, "lon": -97.783821}, {"lat": 30.291090, "lon": -97.741493}, {"lat": 30.301100, "lon": -97.703516}, {"lat": 30.308031, "lon": -97.750472}, {"lat": 30.292391, "lon": -97.825760}, {"lat": 30.221821, "lon": -97.841011}, {"lat": 30.448436, "lon": -97.787290}],
        "zips": [78664, 78704, 78705, 78723, 78731, 78746, 78749, 78750],
        "kids": ["breakfast tacos w/ extra tortillas"],
        "playground": true,
        "playarea": true,
        "enabled": true,
        "deleted": false
    },
    {
        "id": 27,
        "name": "Austin Terrier",
        "sub_name": "off Greystone Dr",
        "categories": ["Pizza", "Breakfast & Brunch", "Burgers"],
        "site": "https://www.austinterrier.com/",
        "menu": "https://www.austinterrier.com/menu",
        "organic": false,
        "local": false,
        "vegetarian": false,
        "vegan": false,
        "keto": false,
        "indoor": true,
        "outdoor": true,
        "price": 2,
        "coords": [],
        "zips": [78731],
        "kids": ["soup", "beet salad", "grilled avocado", "avocado toast"],
        "playground": false,
        "playarea": false,
        "enabled": false,
        "deleted": true
    },
    {
        "id": 28,
        "name": "Austin Daily Press",
        "sub_name": "East Martin Luther King Jr",
        "categories": ["Delis", "Sandwiches", "Comfort Food"],
        "site": "https://www.austindailypress.com/",
        "menu": "https://www.austindailypress.com/order-online-2",
        "organic": false,
        "local": false,
        "vegetarian": false,
        "vegan": false,
        "keto": false,
        "indoor": false,
        "outdoor": true,
        "price": 2,
        "coords": [{"lat": 30.280219, "lon": -97.721123}],
        "zips": [78702],
        "kids": [],
        "playground": false,
        "playarea": false,
        "enabled": true,
        "deleted": false
    },
    {
        "id": 29,
        "name": "True Food Kitchen",
        "sub_name": "Multiple Locations",
        "categories": ["American (New)", "Vegetarian", "Vegan"],
        "site": "https://www.truefoodkitchen.com",
        "menu": "https://order.truefoodkitchen.com/menu/austin-domain",
        "organic": true,
        "local": false,
        "vegetarian": false,
        "vegan": false,
        "keto": true,
        "indoor": true,
        "outdoor": true,
        "price": 2,
        "coords": [{"lat": 30.267397, "lon": -97.752009}, {"lat": 30.400690, "lon": -97.726402}],
        "zips": [78701, 78758],
        "kids": ["chicken teriyaki", "burger", "pizza"],
        "playground": true,
        "playarea": true,
        "enabled": true,
        "deleted": false
    },
    {
        "id": 30,
        "name": "Easy Tiger",
        "sub_name": "Multiple Locations",
        "categories": ["Bakeries", "Beer Gardens"],
        "site": "https://www.easytigerusa.com/location/linc",
        "menu": "https://www.easytigerusa.com/menu",
        "organic": false,
        "local": true,
        "vegetarian": false,
        "vegan": false,
        "keto": false,
        "indoor": true,
        "outdoor": true,
        "price": 2,
        "coords": [{"lat": 30.240330, "lon": -97.787132}, {"lat": 30.325681, "lon": -97.707826}],
        "zips": [78704, 78752],
        "kids": ["burger", "egg sandwich"],
        "playground": false,
        "playarea": false,
        "enabled": true,
        "deleted": false
    },
    {
        "id": 31,
        "name": "Central Market Cafe",
        "sub_name": "North Lamar",
        "categories": ["American (Traditional)", "Breakfast & Brunch"],
        "site": "https://www.centralmarket.com/locations/austin-north-lamar",
        "menu": "http://places.singleplatform.com/central-market-cafe/menu",
        "organic": false,
        "local": false,
        "vegetarian": false,
        "vegan": false,
        "keto": false,
        "indoor": true,
        "outdoor": true,
        "price": 2,
        "coords": [{"lat": 30.300808, "lon": -97.745882}],
        "zips": [78756],
        "kids": ["burger", "pizza", "grocery items"],
        "playground": true,
        "playarea": true,
        "enabled": true,
        "deleted": false
    },
    {
        "id": 32,
        "name": "Whole Foods Market",
        "sub_name": "Multiple Locations",
        "categories": ["Sandwiches", "Pizza", "Salad Bar"],
        "site": "https://www.wholefoodsmarket.com/stores/domain",
        "menu": "https://www.wholefoodsmarket.com/stores/domain#store-eateries-and-bars",
        "organic": false,
        "local": false,
        "vegetarian": false,
        "vegan": false,
        "keto": false,
        "indoor": true,
        "outdoor": true,
        "price": 2,
        "coords": [{"lat": 30.263960, "lon": -97.733627}, {"lat": 30.270651, "lon": -97.753563}, {"lat": 30.221818, "lon": -97.841010}, {"lat": 30.406059, "lon": -97.721069}, {"lat": 30.388107, "lon": -97.740944}],
        "zips": [78702, 78703, 78749, 78758, 78759],
        "kids": ["tacos", "pizza", "salad bar items", "grocery items"],
        "playground": true,
        "playarea": true,
        "enabled": true,
        "deleted": false
    },
    {
        "id": 33,
        "name": "Culinary Dropout",
        "sub_name": "The Domain",
        "categories": ["American (New)"],
        "site": "https://www.culinarydropout.com/locations/austin-tx/",
        "menu": "https://www.culinarydropout.com/locations/austin-tx/menus/main-menu/",
        "organic": false,
        "local": false,
        "vegetarian": false,
        "vegan": false,
        "keto": false,
        "indoor": true,
        "outdoor": true,
        "price": 2,
        "coords": [{"lat": 30.403685, "lon": -97.721558}],
        "zips": [78758],
        "kids": ["burger"],
        "playground": true,
        "playarea": true,
        "enabled": true,
        "deleted": false
    },
    {
        "id": 34,
        "name": "Pinthouse Pizza",
        "sub_name": "Multiple Locations",
        "categories": ["Pizza", "Brewpubs"],
        "site": "https://pinthouse.com/burnet",
        "menu": "https://pinthouse.com/burnet/food/menu",
        "organic": false,
        "local": true,
        "vegetarian": false,
        "vegan": false,
        "keto": false,
        "indoor": true,
        "outdoor": true,
        "price": 2,
        "coords": [{"lat": 30.538349, "lon": -97.693672}, {"lat": 30.236080, "lon": -97.795853}, {"lat": 30.318640, "lon": -97.739212}],
        "zips": [78681, 78704, 78756],
        "kids": ["mushroom pizza"],
        "playground": false,
        "playarea": false,
        "enabled": true,
        "deleted": false
    },
    {
        "id": 35,
        "name": "Via 313",
        "sub_name": "Multiple Locations",
        "categories": ["Pizza"],
        "site": "https://locations.via313.com/locations/3016-guadalupe-st-/#100/",
        "menu": "https://www.via313.com/menu/",
        "organic": false,
        "local": false,
        "vegetarian": false,
        "vegan": false,
        "keto": false,
        "indoor": true,
        "outdoor": true,
        "price": 2,
        "coords": [{"lat": 30.526430, "lon": -97.814163}, {"lat": 30.529640, "lon": -97.690102}, {"lat": 30.260851, "lon": -97.738251}, {"lat": 30.262190, "lon": -97.723053}, {"lat": 30.298096, "lon": -97.745483}, {"lat": 30.232815, "lon": -97.865673}, {"lat": 30.325165, "lon": -97.957610}, {"lat": 30.170330, "lon": -97.826157}],
        "zips": [78613, 78644, 78701, 78702, 78705, 78735, 78738, 78748],
        "kids": ["pizza"],
        "playground": false,
        "playarea": false,
        "enabled": true,
        "deleted": false
    },
    {
        "id": 36,
        "name": "Aviator Pizza & Drafthouse",
        "sub_name": "Multiple Locations",
        "categories": ["Pizza"],
        "site": "https://aviatorpizza.com",
        "menu": "https://aviatorpizza.com/#Our-Locations",
        "organic": false,
        "local": false,
        "vegetarian": false,
        "vegan": false,
        "keto": false,
        "indoor": true,
        "outdoor": true,
        "price": 2,
        "coords": [{"lat": 30.297955, "lon": -97.705306}, {"lat": 30.425005, "lon": -97.716071}, {"lat": 30.195240, "lon": -97.777412}],
        "zips": [78723, 78727, 78745],
        "kids": ["mushroom pizza"],
        "playground": true,
        "playarea": true,
        "enabled": true,
        "deleted": false
    },
    {
        "id": 37,
        "name": "Pizza Day",
        "sub_name": "Great Hills Trail",
        "categories": ["Pizza", "Salad", "Sandwiches"],
        "site": "https://pizzadaytx.com",
        "menu": "https://pizzadaytx.com/shop",
        "organic": true,
        "local": false,
        "vegetarian": false,
        "vegan": false,
        "keto": false,
        "indoor": false,
        "outdoor": false,
        "price": 2,
        "coords": [{"lat": 30.394873, "lon": -97.745731}],
        "zips": [78759],
        "kids": ["mushroom pizza"],
        "playground": false,
        "playarea": false,
        "enabled": true,
        "deleted": false
    },
    {
        "id": 38,
        "name": "P. Terrys",
        "sub_name": "Multiple Locations",
        "categories": ["Burgers", "Fast Food"],
        "site": "https://pterrys.com/",
        "menu": "https://pterrys.com/menu",
        "organic": false,
        "local": false,
        "vegetarian": false,
        "vegan": false,
        "keto": false,
        "indoor": true,
        "outdoor": true,
        "price": 1,
        "coords": [{"lat": 30.281963, "lon": -97.743549}, {"lat": 30.267686, "lon": -97.742678}, {"lat": 30.260718, "lon": -97.714208}, {"lat": 30.261990, "lon": -97.758331}, {"lat": 30.224225, "lon": -97.764266}, {"lat": 30.301729, "lon": -97.744820}, {"lat": 30.296128, "lon": -97.718487}, {"lat": 30.232275, "lon": -97.736282}, {"lat": 30.222102, "lon": -97.674566}, {"lat": 30.292392, "lon": -97.825765}, {"lat": 30.171541, "lon": -97.783627}, {"lat": 30.222120, "lon": -97.837700}, {"lat": 30.461821, "lon": -97.794899}, {"lat": 30.328289, "lon": -97.725316}, {"lat": 30.403969, "lon": -97.725718}, {"lat": 30.366529, "lon": -97.727730}, {"lat": 30.414764, "lon": -97.705075}, {"lat": 30.424838, "lon": -97.751911}],
        "zips": [78701, 78701, 78704, 78704, 78705, 78723, 78741, 78742, 78746, 78748, 78749, 78750, 78752, 78753, 78757, 78758, 78759],
        "kids": ["burger"],
        "playground": false,
        "playarea": false,
        "enabled": true,
        "deleted": false
    },
    {
        "id": 39,
        "name": "Galaxy Cafe",
        "sub_name": "Multiple Locations",
        "categories": ["American (Traditional)", "American (New)", "Breakfast & Brunch"],
        "site": "https://www.galaxycafeaustin.com/northwest",
        "menu": "https://www.galaxycafeaustin.com/menus",
        "organic": false,
        "local": false,
        "vegetarian": false,
        "vegan": false,
        "keto": false,
        "indoor": true,
        "outdoor": true,
        "price": 2,
        "coords": [{"lat": 30.279379, "lon": -97.760047}, {"lat": 30.184179, "lon": -97.847870}, {"lat": 30.373186, "lon": -97.755728}],
        "zips": [78703, 78748, 78759],
        "kids": ["breakfast taco", "burger"],
        "playground": false,
        "playarea": false,
        "enabled": true,
        "deleted": false
    },
    {
        "id": 40,
        "name": "Hat Creek",
        "sub_name": "Multiple Locations",
        "categories": ["Burgers", "Fast Food", "American (Traditional)"],
        "site": "https://hatcreekburgers.com/",
        "menu": "https://hatcreekburgers.com/full-menu",
        "organic": false,
        "local": false,
        "vegetarian": false,
        "vegan": false,
        "keto": false,
        "indoor": true,
        "outdoor": true,
        "price": 2,
        "coords": [{"lat": 30.528472, "lon": -97.625475}, {"lat": 30.285287, "lon": -97.813428}, {"lat": 30.328257, "lon": -97.740070}, {"lat": 30.400019, "lon": -97.723449}],
        "zips": [78665, 78746, 78756, 78758],
        "kids": ["tiny hat"],
        "playground": true,
        "playarea": true,
        "enabled": true,
        "deleted": false
    },
    {
        "id": 41,
        "name": "Foxhole Culinary Tavern",
        "sub_name": "Cedar Park",
        "categories": ["American (New)"],
        "site": "https://foxholeaustin.com/",
        "menu": "https://foxholeaustin.com/austin-foxhole-culinary-tavern-food-menu",
        "organic": false,
        "local": true,
        "vegetarian": false,
        "vegan": false,
        "keto": false,
        "indoor": true,
        "outdoor": true,
        "price": 2,
        "coords": [{"lat": 30.474467, "lon": -97.798280}],
        "zips": [78717],
        "kids": ["burger", "flatbread"],
        "playground": false,
        "playarea": false,
        "enabled": true,
        "deleted": false
    },
    {
        "id": 42,
        "name": "Conscious Cravings",
        "sub_name": "Multiple Locations",
        "categories": ["Vegetarian", "Vegan", "Gluten-Free"],
        "site": "https://www.consciouscravingsaustin.com/",
        "menu": "https://www.consciouscravingsaustin.com/menu",
        "organic": true,
        "local": false,
        "vegetarian": true,
        "vegan": true,
        "keto": false,
        "indoor": false,
        "outdoor": true,
        "price": 1,
        "coords": [{"lat": 30.276430, "lon": -97.700043}],
        "zips": [78722],
        "kids": ["avocado wrap"],
        "playground": true,
        "playarea": true,
        "enabled": true,
        "deleted": false
    },
    {
        "id": 43,
        "name": "H Mart",
        "sub_name": "Cedar Park",
        "categories": ["Food Court", "Korean", "International Grocery"],
        "site": "https://www.hmart.com/",
        "menu": "",
        "organic": false,
        "local": false,
        "vegetarian": false,
        "vegan": false,
        "keto": false,
        "indoor": true,
        "outdoor": false,
        "price": 2,
        "coords": [{"lat": 30.477171, "lon": -97.798859}, {"lat": 30.324299, "lon": -97.740202}],
        "zips": [78717, 78756],
        "kids": ["sushi", "grocery items", "spaghetti"],
        "playground": false,
        "playarea": true,
        "enabled": true,
        "deleted": false
    },
    {
        "id": 44,
        "name": "Tarka",
        "sub_name": "Multiple Locations",
        "categories": ["Indian", "Vegetarian", "Vegan"],
        "site": "https://tarkaindiankitchen.com/#orderonline",
        "menu": "https://tarkaindiankitchen.com/#menu",
        "organic": false,
        "local": false,
        "vegetarian": false,
        "vegan": false,
        "keto": false,
        "indoor": true,
        "outdoor": true,
        "price": 2,
        "coords": [{"lat": 30.470276, "lon": -97.801583}, {"lat": 30.212778, "lon": -97.831062}, {"lat": 30.356716, "lon": -97.735644}],
        "zips": [78613, 78745, 78757],
        "kids": ["biryani rice bowl", "tikka masala bowl"],
        "playground": false,
        "playarea": false,
        "enabled": true,
        "deleted": false
    },
    {
        "id": 45,
        "name": "JuiceLand",
        "sub_name": "Multiple Locations",
        "categories": ["Juice Bars & Smoothies"],
        "site": "https://www.juiceland.com/locations/north-burnet",
        "menu": "https://www.juiceland.com/full-menu/",
        "organic": true,
        "local": true,
        "vegetarian": true,
        "vegan": true,
        "keto": false,
        "indoor": true,
        "outdoor": true,
        "price": 2,
        "coords": [{"lat": 30.266802, "lon": -97.749987}, {"lat": 30.253753, "lon": -97.715338}, {"lat": 30.263306, "lon": -97.731628}, {"lat": 30.277540, "lon": -97.772217}, {"lat": 30.270651, "lon": -97.753563}, {"lat": 30.262381, "lon": -97.762481}, {"lat": 30.243969, "lon": -97.758296}, {"lat": 30.219631, "lon": -97.756108}, {"lat": 30.295019, "lon": -97.743088}, {"lat": 30.279020, "lon": -97.725372}, {"lat": 30.302636, "lon": -97.699387}, {"lat": 30.336549, "lon": -97.757558}, {"lat": 30.231159, "lon": -97.800819}, {"lat": 30.307266, "lon": -97.724881}, {"lat": 30.349372, "lon": -97.734840}, {"lat": 30.402790, "lon": -97.721324}, {"lat": 30.398872, "lon": -97.745261}],
        "zips": [78701, 78702, 78702, 78703, 78703, 78704, 78704, 78704, 78705, 78722, 78723, 78731, 78745, 78751, 78757, 78758, 78759],
        "kids": ["peachy green", "raspberry hooray"],
        "playground": false,
        "playarea": false,
        "enabled": true,
        "deleted": false
    },
    {
        "id": 46,
        "name": "Varacruz All Natural",
        "sub_name": "Multiple Locations",
        "categories": ["Tacos", "Mexican", "Food Trucks"],
        "site": "https://veracruzallnatural.com",
        "menu": "https://veracruzallnatural.com/menu",
        "organic": false,
        "local": false,
        "vegetarian": false,
        "vegan": false,
        "keto": false,
        "indoor": false,
        "outdoor": true,
        "price": 1,
        "coords": [{"lat": 30.262899, "lon": -97.744080}, {"lat": 30.263069, "lon": -97.713699}, {"lat": 30.292768, "lon": -97.760435}, {"lat": 30.207882, "lon": -97.715465}],
        "zips": [78701, 78702, 78703, 78744],
        "kids": ["el breakfast taco"],
        "playground": false,
        "playarea": false,
        "enabled": true,
        "deleted": false
    },
    {
        "id": 47,
        "name": "Hanks",
        "sub_name": "Berkman",
        "categories": ["American (Traditional)", "Breakfast & Brunch"],
        "site": "https://www.hanksaustin.com",
        "menu": "https://www.hanksaustin.com/menus",
        "organic": false,
        "local": false,
        "vegetarian": false,
        "vegan": false,
        "keto": false,
        "indoor": true,
        "outdoor": true,
        "price": 2,
        "coords": [{"lat": 30.312370, "lon": -97.692963}],
        "zips": [78723],
        "kids": ["burger", "taco"],
        "playground": false,
        "playarea": false,
        "enabled": true,
        "deleted": false
    },
    {
        "id": 48,
        "name": "Roaring Fork",
        "sub_name": "Multiple Locations",
        "categories": ["American (New)", "American (Traditional)", "Steakhouses"],
        "site": "http://www.roaringfork.com",
        "menu": "http://www.roaringfork.com/#/locations",
        "organic": false,
        "local": false,
        "vegetarian": false,
        "vegan": false,
        "keto": false,
        "indoor": true,
        "outdoor": true,
        "price": 3,
        "coords": [{"lat": 30.269047, "lon": -97.741973}, {"lat": 30.400843, "lon": -97.737808}],
        "zips": [78701, 78759],
        "kids": [],
        "playground": false,
        "playarea": false,
        "enabled": true,
        "deleted": false
    },
    {
        "id": 49,
        "name": "Maryes Gourmet Pizza",
        "sub_name": "Bee Caves Rd",
        "categories": ["Pizza", "Salad", "Sandwiches"],
        "site": "https://maryesgourmetpizza.com/",
        "menu": "https://maryesgourmetpizza.com/austin-marye-s-gourmet-pizza-food-menu",
        "organic": true,
        "local": false,
        "vegetarian": false,
        "vegan": false,
        "keto": false,
        "indoor": true,
        "outdoor": false,
        "price": 2,
        "coords": [{"lat": 30.278562, "lon": -97.807703}],
        "zips": [78746],
        "kids": [],
        "playground": false,
        "playarea": false,
        "enabled": true,
        "deleted": false
    },
    {
        "id": 50,
        "name": "Local Slice II",
        "sub_name": "183/290",
        "categories": ["Pizza", "Chicken Wings"],
        "site": "https://www.localsliceaustin.com/",
        "menu": "https://www.localsliceaustin.com/",
        "organic": true,
        "local": true,
        "vegetarian": false,
        "vegan": false,
        "keto": false,
        "indoor": true,
        "outdoor": false,
        "price": 1,
        "coords": [{"lat": 30.330958, "lon": -97.666740}],
        "zips": [78754],
        "kids": [],
        "playground": false,
        "playarea": false,
        "enabled": true,
        "deleted": false
    },
    {
        "id": 51,
        "name": "Mangieris Pizza Cafe",
        "sub_name": "Slaughter Ln",
        "categories": ["Italian", "Pizza"],
        "site": "https://mangieris.com",
        "menu": "https://mangieris.com/menu/",
        "organic": true,
        "local": true,
        "vegetarian": false,
        "vegan": false,
        "keto": false,
        "indoor": true,
        "outdoor": true,
        "price": 2,
        "coords": [{"lat": 30.201550, "lon": -97.878967}],
        "zips": [78749],
        "kids": [],
        "playground": false,
        "playarea": false,
        "enabled": true,
        "deleted": false
    },
    {
        "id": 52,
        "name": "Peoples Rx Deli",
        "sub_name": "Multiple Locations",
        "categories": ["Delis", "Health Markets"],
        "site": "https://peoplesrx.com",
        "menu": "https://peoplesrx.com/fresh-eats/menu/",
        "organic": true,
        "local": true,
        "vegetarian": false,
        "vegan": false,
        "keto": false,
        "indoor": false,
        "outdoor": false,
        "price": 2,
        "coords": [{"lat": 30.238031, "lon": -97.789147}, {"lat": 30.275553, "lon": -97.816531}, {"lat": 30.466881, "lon": -97.797736}, {"lat": 30.308967, "lon": -97.741086}],
        "zips": [78704, 78746, 78750, 78756],
        "kids": [],
        "playground": false,
        "playarea": false,
        "enabled": true,
        "deleted": false
    },
    {
        "id": 53,
        "name": "Mr Natural",
        "sub_name": "off Cesar Chavez",
        "categories": ["Vegetarian", "Vegan", "Mexican", "Gluten-Free"],
        "site": "https://mrnaturalatx.com/",
        "menu": "https://mrnaturalatx.com/austin-east-austin-mr-natural-food-menu",
        "organic": false,
        "local": false,
        "vegetarian": true,
        "vegan": true,
        "keto": false,
        "indoor": true,
        "outdoor": true,
        "price": 2,
        "coords": [{"lat": 30.256849, "lon": -97.724571}],
        "zips": [78702],
        "kids": [],
        "playground": false,
        "playarea": false,
        "enabled": true,
        "deleted": false
    },
    {
        "id": 54,
        "name": "Wholly Cow Burgers",
        "sub_name": "South Lamar",
        "categories": ["Burgers", "Sandwiches"],
        "site": "https://whollycowburgers.com/",
        "menu": "https://www.toasttab.com/wholly-cow-burgers-south-lamar/v3/",
        "organic": false,
        "local": true,
        "vegetarian": false,
        "vegan": false,
        "keto": false,
        "indoor": true,
        "outdoor": false,
        "price": 1,
        "coords": [{"lat": 30.242990, "lon": -97.783760}],
        "zips": [78704],
        "kids": [],
        "playground": false,
        "playarea": false,
        "enabled": true,
        "deleted": false
    },
    {
        "id": 55,
        "name": "Nasha",
        "sub_name": "Multiple Locations",
        "categories": ["Indian", "Tex-Mex"],
        "site": "https://nashaindia.com/",
        "menu": "https://downtown.nashaindia.com/austin-east-7th-nasha-food-menu",
        "organic": false,
        "local": false,
        "vegetarian": false,
        "vegan": false,
        "keto": false,
        "indoor": true,
        "outdoor": true,
        "price": 2,
        "coords": [{"lat": 30.263741, "lon": -97.724829}, {"lat": 30.168548, "lon": -97.787498}],
        "zips": [78702, 78745],
        "kids": [],
        "playground": false,
        "playarea": false,
        "enabled": true,
        "deleted": false
    },
    {
        "id": 56,
        "name": "Kura Revolving Sushi Bar",
        "sub_name": "off Airport",
        "categories": ["Sushi Bars"],
        "site": "https://kurasushi.com/locations/austin-tx-airport-blvd/",
        "menu": "https://kurasushi.com/menu",
        "organic": false,
        "local": false,
        "vegetarian": false,
        "vegan": false,
        "keto": false,
        "indoor": true,
        "outdoor": false,
        "price": 2,
        "coords": [{"lat": 30.336590, "lon": -97.718224}],
        "zips": [78752],
        "kids": [],
        "playground": false,
        "playarea": false,
        "enabled": true,
        "deleted": false
    },
    {
        "id": 57,
        "name": "Little Deli",
        "sub_name": "Multiple Locations",
        "categories": ["Pizza", "Delis", "Sandwiches"],
        "site": "https://littledeliandpizza.com/",
        "menu": "https://littledeliandpizza.com/menu/",
        "organic": false,
        "local": false,
        "vegetarian": false,
        "vegan": false,
        "keto": false,
        "indoor": false,
        "outdoor": true,
        "price": 2,
        "coords": [{"lat": 30.314221, "lon": -97.689686}, {"lat": 30.342193, "lon": -97.725164}],
        "zips": [78723, 78757],
        "kids": [],
        "playground": false,
        "playarea": false,
        "enabled": true,
        "deleted": false
    },
    {
        "id": 58,
        "name": "Curra's Grill",
        "sub_name": "Multiple Locations",
        "categories": ["Mexican"],
        "site": "https://currashydepark.com",
        "menu": "https://currashydepark.com/austin-hyde-park-curra-s-hyde-park-food-menu",
        "organic": false,
        "local": false,
        "vegetarian": false,
        "vegan": false,
        "keto": false,
        "indoor": true,
        "outdoor": true,
        "price": 2,
        "coords": [{"lat": 30.237129, "lon": -97.749458}, {"lat": 30.304390, "lon": -97.725929}],
        "zips": [78704, 78751],
        "kids": [],
        "playground": false,
        "playarea": false,
        "enabled": true,
        "deleted": false
    },
    {
        "id": 59,
        "name": "Home Slice Pizza",
        "sub_name": "Multiple Locations",
        "categories": ["Pizza", "Sandwiches"],
        "site": "https://homeslicepizza.com/",
        "menu": "https://homeslicepizza.com/",
        "organic": false,
        "local": true,
        "vegetarian": false,
        "vegan": false,
        "keto": false,
        "indoor": true,
        "outdoor": true,
        "price": 2,
        "coords": [{"lat": 30.249201, "lon": -97.749443}, {"lat": 30.315849, "lon": -97.718491}],
        "zips": [78704, 78751],
        "kids": [],
        "playground": false,
        "playarea": true,
        "enabled": true,
        "deleted": false
    },
    {
        "id": 60,
        "name": "Jewboy Burgers",
        "sub_name": "off Airport",
        "categories": ["Burgers", "Diners"],
        "site": "https://jewboyburgers.com",
        "menu": "https://jewboyburgers.com/menu/",
        "organic": false,
        "local": false,
        "vegetarian": false,
        "vegan": false,
        "keto": false,
        "indoor": true,
        "outdoor": true,
        "price": 2,
        "coords": [{"lat": 30.312811, "lon": -97.715073}],
        "zips": [78751],
        "kids": [],
        "playground": false,
        "playarea": false,
        "enabled": true,
        "deleted": false
    },
    {
        "id": 61,
        "name": "Hopdoddy Burger Bar",
        "sub_name": "Multiple Locations",
        "categories": ["Burgers"],
        "site": "https://www.hopdoddy.com",
        "menu": "https://qrco.de/HDTriangle",
        "organic": false,
        "local": false,
        "vegetarian": false,
        "vegan": false,
        "keto": false,
        "indoor": true,
        "outdoor": false,
        "price": 2,
        "coords": [{"lat": 30.263861, "lon": -97.732529}, {"lat": 30.252647, "lon": -97.741966}, {"lat": 30.222129, "lon": -97.844325}, {"lat": 30.315356, "lon": -97.734854}, {"lat": 30.356548, "lon": -97.731302}],
        "zips": [78702, 78704, 78749, 78751, 78757],
        "kids": [],
        "playground": false,
        "playarea": false,
        "enabled": true,
        "deleted": false
    },
    {
        "id": 62,
        "name": "Chipotle",
        "sub_name": "Multiple Locations",
        "categories": ["Mexican", "Fast Food"],
        "site": "https://www.chipotle.com/",
        "menu": "https://www.chipotle.com/#menu",
        "organic": false,
        "local": true,
        "vegetarian": false,
        "vegan": false,
        "keto": true,
        "indoor": true,
        "outdoor": true,
        "price": 1,
        "coords":[{"lat": 30.269979, "lon": -97.741692}, {"lat": 30.263306, "lon": -97.731628}, {"lat": 30.247490, "lon": -97.775932}, {"lat": 30.285660, "lon": -97.742043}, {"lat": 30.306021, "lon": -97.708298}, {"lat": 30.413280, "lon": -97.688179}, {"lat": 30.242460, "lon": -97.727570}, {"lat": 30.233755, "lon": -97.739418}, {"lat": 30.227799, "lon": -97.822660}, {"lat": 30.201300, "lon": -97.768509}, {"lat": 30.275847, "lon": -97.800205}, {"lat": 30.200500, "lon": -97.864014}, {"lat": 30.312519, "lon": -97.738663}, {"lat": 30.359103, "lon": -97.734321}, {"lat": 30.391045, "lon": -97.732002}],
        "zips": [78701, 78702, 78704, 78705, 78723, 78727, 78741, 78741, 78745, 78745, 78746, 78749, 78756, 78757, 78759],
        "kids": ["Kid's build your own"],
        "playground": false,
        "playarea": false,
        "enabled": true,
        "deleted": false
    }
]