{"postalCodes":[{"adminCode2":"453","adminCode1":"TX","adminName2":"Travis","lng":-97.613443,"distance":"0","countryCode":"US","postalCode":"78617","adminName1":"Texas","placeName":"Del Valle","lat":30.174492},{"adminCode2":"453","adminCode1":"TX","adminName2":"Travis","lng":-97.666701,"distance":"5.15897","countryCode":"US","postalCode":"78719","adminName1":"Texas","placeName":"Austin","lat":30.180243},{"adminCode2":"453","adminCode1":"TX","adminName2":"Travis","lng":-97.670349,"distance":"8.35437","countryCode":"US","postalCode":"78742","adminName1":"Texas","placeName":"Austin","lat":30.231296},{"adminCode2":"453","adminCode1":"TX","adminName2":"Travis","lng":-97.624301,"distance":"9.14324","countryCode":"US","postalCode":"78725","adminName1":"Texas","placeName":"Austin","lat":30.256186},{"adminCode2":"453","adminCode1":"TX","adminName2":"Travis","lng":-97.722317,"distance":"12.23343","countryCode":"US","postalCode":"78741","adminName1":"Texas","placeName":"Austin","lat":30.231513},{"adminCode2":"453","adminCode1":"TX","adminName2":"Travis","lng":-97.74723,"distance":"12.94201","countryCode":"US","postalCode":"78744","adminName1":"Texas","placeName":"Austin","lat":30.18764},{"adminCode2":"453","adminCode1":"TX","adminName2":"Travis","lng":-97.686798,"distance":"12.9446","countryCode":"US","postalCode":"78721","adminName1":"Texas","placeName":"Austin","lat":30.272144},{"adminCode2":"453","adminCode1":"TX","adminName2":"Travis","lng":-97.639587,"distance":"13.73991","countryCode":"US","postalCode":"78724","adminName1":"Texas","placeName":"Austin","lat":30.295982},{"adminCode2":"453","adminCode1":"TX","adminName2":"Travis","lng":-97.743317,"distance":"13.85897","countryCode":"US","postalCode":"78747","adminName1":"Texas","placeName":"Austin","lat":30.120427},{"adminCode2":"453","adminCode1":"TX","adminName2":"Travis","lng":-97.716589,"distance":"14.03059","countryCode":"US","postalCode":"78702","adminName1":"Texas","placeName":"Austin","lat":30.263817},{"adminCode2":"021","adminCode1":"TX","adminName2":"Bastrop","lng":-97.497602,"distance":"14.10766","countryCode":"US","postalCode":"78612","adminName1":"Texas","placeName":"Cedar Creek","lat":30.096636},{"adminCode2":"453","adminCode1":"TX","adminName2":"Travis","lng":-97.71495,"distance":"16.06432","countryCode":"US","postalCode":"78722","adminName1":"Texas","placeName":"Austin","lat":30.289305},{"adminCode2":"453","adminCode1":"TX","adminName2":"Travis","lng":-97.7430608,"distance":"16.16286","countryCode":"US","postalCode":"78714","adminName1":"Texas","placeName":"Austin","lat":30.267153},{"adminCode2":"453","adminCode1":"TX","adminName2":"Travis","lng":-97.7430608,"distance":"16.16286","countryCode":"US","postalCode":"78767","adminName1":"Texas","placeName":"Austin","lat":30.267153},{"adminCode2":"453","adminCode1":"TX","adminName2":"Travis","lng":-97.7430608,"distance":"16.16286","countryCode":"US","postalCode":"78715","adminName1":"Texas","placeName":"Austin","lat":30.267153},{"adminCode2":"453","adminCode1":"TX","adminName2":"Travis","lng":-97.7430608,"distance":"16.16286","countryCode":"US","postalCode":"78713","adminName1":"Texas","placeName":"Austin","lat":30.267153},{"adminCode2":"453","adminCode1":"TX","adminName2":"Travis","lng":-97.7430608,"distance":"16.16286","countryCode":"US","postalCode":"78766","adminName1":"Texas","placeName":"Austin","lat":30.267153},{"adminCode2":"453","adminCode1":"TX","adminName2":"Travis","lng":-97.7430608,"distance":"16.16286","countryCode":"US","postalCode":"78768","adminName1":"Texas","placeName":"Austin","lat":30.267153},{"adminCode2":"453","adminCode1":"TX","adminName2":"Travis","lng":-97.7430608,"distance":"16.16286","countryCode":"US","postalCode":"78799","adminName1":"Texas","placeName":"Austin","lat":30.267153},{"adminCode2":"453","adminCode1":"TX","adminName2":"Travis","lng":-97.684941,"distance":"16.40844","countryCode":"US","postalCode":"78723","adminName1":"Texas","placeName":"Austin","lat":30.308515},{"adminCode2":"453","adminCode1":"TX","adminName2":"Travis","lng":-97.742559,"distance":"16.42318","countryCode":"US","postalCode":"78701","adminName1":"Texas","placeName":"Austin","lat":30.271289},{"adminCode2":"453","adminCode1":"TX","adminName2":"Travis","lng":-97.765788,"distance":"16.49343","countryCode":"US","postalCode":"78704","adminName1":"Texas","placeName":"Austin","lat":30.242831},{"adminCode2":"453","adminCode1":"TX","adminName2":"Travis","lng":-97.735394,"distance":"16.99421","countryCode":"US","postalCode":"78712","adminName1":"Texas","placeName":"Austin","lat":30.285207},{"adminCode2":"453","adminCode1":"TX","adminName2":"Travis","lng":-97.739627,"distance":"17.62979","countryCode":"US","postalCode":"78705","adminName1":"Texas","placeName":"Austin","lat":30.289619},{"adminCode2":"453","adminCode1":"TX","adminName2":"Travis","lng":-97.795599,"distance":"17.86023","countryCode":"US","postalCode":"78745","adminName1":"Texas","placeName":"Austin","lat":30.206298},{"adminCode2":"453","adminCode1":"TX","adminName2":"Travis","lng":-97.724163,"distance":"18.378","countryCode":"US","postalCode":"78751","adminName1":"Texas","placeName":"Austin","lat":30.309288},{"adminCode2":"453","adminCode1":"TX","adminName2":"Travis","lng":-97.559807,"distance":"18.61794","countryCode":"US","postalCode":"78763","adminName1":"Texas","placeName":"Austin","lat":30.335398},{"adminCode2":"453","adminCode1":"TX","adminName2":"Travis","lng":-97.700394,"distance":"19.3586","countryCode":"US","postalCode":"78752","adminName1":"Texas","placeName":"Austin","lat":30.331562},{"adminCode2":"453","adminCode1":"TX","adminName2":"Travis","lng":-97.667267,"distance":"19.36466","countryCode":"US","postalCode":"78754","adminName1":"Texas","placeName":"Austin","lat":30.342331},{"adminCode2":"453","adminCode1":"TX","adminName2":"Travis","lng":-97.764809,"distance":"19.45041","countryCode":"US","postalCode":"78703","adminName1":"Texas","placeName":"Austin","lat":30.290671},{"adminCode2":"453","adminCode1":"TX","adminName2":"Travis","lng":-97.532295,"distance":"19.86402","countryCode":"US","postalCode":"78653","adminName1":"Texas","placeName":"Manor","lat":30.338817},{"adminCode2":"453","adminCode1":"TX","adminName2":"Travis","lng":-97.822474,"distance":"20.09276","countryCode":"US","postalCode":"78748","adminName1":"Texas","placeName":"Austin","lat":30.174311},{"adminCode2":"453","adminCode1":"TX","adminName2":"Travis","lng":-97.739032,"distance":"20.3877","countryCode":"US","postalCode":"78756","adminName1":"Texas","placeName":"Austin","lat":30.322312},{"adminCode2":"453","adminCode1":"TX","adminName2":"Travis","lng":-97.731617,"distance":"21.97539","countryCode":"US","postalCode":"78757","adminName1":"Texas","placeName":"Austin","lat":30.343732},{"adminCode2":"453","adminCode1":"TX","adminName2":"Travis","lng":-97.715123,"distance":"22.01589","countryCode":"US","postalCode":"78710","adminName1":"Texas","placeName":"Austin","lat":30.351953},{"adminCode2":"453","adminCode1":"TX","adminName2":"Travis","lng":-97.682658,"distance":"22.18493","countryCode":"US","postalCode":"78753","adminName1":"Texas","placeName":"Austin","lat":30.36485},{"adminCode2":"453","adminCode1":"TX","adminName2":"Travis","lng":-97.839325,"distance":"22.43681","countryCode":"US","postalCode":"78652","adminName1":"Texas","placeName":"Manchaca","lat":30.123827},{"adminCode2":"453","adminCode1":"TX","adminName2":"Travis","lng":-97.771258,"distance":"22.6927","countryCode":"US","postalCode":"73301","adminName1":"Texas","placeName":"Austin","lat":30.326374},{"adminCode2":"453","adminCode1":"TX","adminName2":"Travis","lng":-97.771258,"distance":"22.6927","countryCode":"US","postalCode":"73344","adminName1":"Texas","placeName":"Austin","lat":30.326374},{"adminCode2":"453","adminCode1":"TX","adminName2":"Travis","lng":-97.771258,"distance":"22.6927","countryCode":"US","postalCode":"78711","adminName1":"Texas","placeName":"Austin","lat":30.326374},{"adminCode2":"453","adminCode1":"TX","adminName2":"Travis","lng":-97.771258,"distance":"22.6927","countryCode":"US","postalCode":"78774","adminName1":"Texas","placeName":"Austin","lat":30.326374},{"adminCode2":"453","adminCode1":"TX","adminName2":"Travis","lng":-97.771258,"distance":"22.6927","countryCode":"US","postalCode":"78720","adminName1":"Texas","placeName":"Austin","lat":30.326374},{"adminCode2":"453","adminCode1":"TX","adminName2":"Travis","lng":-97.771258,"distance":"22.6927","countryCode":"US","postalCode":"78718","adminName1":"Texas","placeName":"Austin","lat":30.326374},{"adminCode2":"453","adminCode1":"TX","adminName2":"Travis","lng":-97.771258,"distance":"22.6927","countryCode":"US","postalCode":"78708","adminName1":"Texas","placeName":"Austin","lat":30.326374},{"adminCode2":"453","adminCode1":"TX","adminName2":"Travis","lng":-97.771258,"distance":"22.6927","countryCode":"US","postalCode":"78769","adminName1":"Texas","placeName":"Austin","lat":30.326374},{"adminCode2":"453","adminCode1":"TX","adminName2":"Travis","lng":-97.771258,"distance":"22.6927","countryCode":"US","postalCode":"78762","adminName1":"Texas","placeName":"Austin","lat":30.326374},{"adminCode2":"453","adminCode1":"TX","adminName2":"Travis","lng":-97.771258,"distance":"22.6927","countryCode":"US","postalCode":"78765","adminName1":"Texas","placeName":"Austin","lat":30.326374},{"adminCode2":"453","adminCode1":"TX","adminName2":"Travis","lng":-97.771258,"distance":"22.6927","countryCode":"US","postalCode":"78760","adminName1":"Texas","placeName":"Austin","lat":30.326374},{"adminCode2":"453","adminCode1":"TX","adminName2":"Travis","lng":-97.771258,"distance":"22.6927","countryCode":"US","postalCode":"78755","adminName1":"Texas","placeName":"Austin","lat":30.326374},{"adminCode2":"453","adminCode1":"TX","adminName2":"Travis","lng":-97.771258,"distance":"22.6927","countryCode":"US","postalCode":"78761","adminName1":"Texas","placeName":"Austin","lat":30.326374},{"adminCode2":"453","adminCode1":"TX","adminName2":"Travis","lng":-97.771258,"distance":"22.6927","countryCode":"US","postalCode":"78709","adminName1":"Texas","placeName":"Austin","lat":30.326374},{"adminCode2":"453","adminCode1":"TX","adminName2":"Travis","lng":-97.771258,"distance":"22.6927","countryCode":"US","postalCode":"78772","adminName1":"Texas","placeName":"Austin","lat":30.326374},{"adminCode2":"453","adminCode1":"TX","adminName2":"Travis","lng":-97.771258,"distance":"22.6927","countryCode":"US","postalCode":"78783","adminName1":"Texas","placeName":"Austin","lat":30.326374},{"adminCode2":"453","adminCode1":"TX","adminName2":"Travis","lng":-97.771258,"distance":"22.6927","countryCode":"US","postalCode":"78773","adminName1":"Texas","placeName":"Austin","lat":30.326374},{"adminCode2":"453","adminCode1":"TX","adminName2":"Travis","lng":-97.771258,"distance":"22.6927","countryCode":"US","postalCode":"78778","adminName1":"Texas","placeName":"Austin","lat":30.326374},{"adminCode2":"453","adminCode1":"TX","adminName2":"Travis","lng":-97.771258,"distance":"22.6927","countryCode":"US","postalCode":"78779","adminName1":"Texas","placeName":"Austin","lat":30.326374},{"adminCode2":"453","adminCode1":"TX","adminName2":"Travis","lng":-97.771258,"distance":"22.6927","countryCode":"US","postalCode":"78651","adminName1":"Texas","placeName":"Mc Neil","lat":30.326374},{"adminCode2":"453","adminCode1":"TX","adminName2":"Travis","lng":-97.850755,"distance":"23.28286","countryCode":"US","postalCode":"78749","adminName1":"Texas","placeName":"Austin","lat":30.216641},{"adminCode2":"453","adminCode1":"TX","adminName2":"Travis","lng":-97.841423,"distance":"23.41923","countryCode":"US","postalCode":"78735","adminName1":"Texas","placeName":"Austin","lat":30.248978},{"adminCode2":"453","adminCode1":"TX","adminName2":"Travis","lng":-97.760887,"distance":"23.85331","countryCode":"US","postalCode":"78731","adminName1":"Texas","placeName":"Austin","lat":30.347129},{"adminCode2":"453","adminCode1":"TX","adminName2":"Travis","lng":-97.818113,"distance":"23.92525","countryCode":"US","postalCode":"78746","adminName1":"Texas","placeName":"Austin","lat":30.2971},{"adminCode2":"453","adminCode1":"TX","adminName2":"Travis","lng":-97.707758,"distance":"24.21118","countryCode":"US","postalCode":"78758","adminName1":"Texas","placeName":"Austin","lat":30.376431},{"adminCode2":"209","adminCode1":"TX","adminName2":"Hays","lng":-97.853422,"distance":"24.84317","countryCode":"US","postalCode":"78610","adminName1":"Texas","placeName":"Buda","lat":30.091758},{"adminCode2":"055","adminCode1":"TX","adminName2":"Caldwell","lng":-97.580968,"distance":"24.8488","countryCode":"US","postalCode":"78616","adminName1":"Texas","placeName":"Dale","lat":29.952785},{"adminCode2":"453","adminCode1":"TX","adminName2":"Travis","lng":-97.878433,"distance":"25.47349","countryCode":"US","postalCode":"78739","adminName1":"Texas","placeName":"Austin","lat":30.172026},{"adminCode2":"021","adminCode1":"TX","adminName2":"Bastrop","lng":-97.373748,"distance":"28.34105","countryCode":"US","postalCode":"78621","adminName1":"Texas","placeName":"Elgin","lat":30.323136},{"adminCode2":"453","adminCode1":"TX","adminName2":"Travis","lng":-97.85877,"distance":"28.34852","countryCode":"US","postalCode":"78716","adminName1":"Texas","placeName":"Austin","lat":30.316223},{"adminCode2":"021","adminCode1":"TX","adminName2":"Bastrop","lng":-97.408058,"distance":"28.43387","countryCode":"US","postalCode":"78662","adminName1":"Texas","placeName":"Red Rock","lat":29.990616},{"adminCode2":"453","adminCode1":"TX","adminName2":"Travis","lng":-97.752602,"distance":"28.76694","countryCode":"US","postalCode":"78759","adminName1":"Texas","placeName":"Austin","lat":30.403614},{"adminCode2":"453","adminCode1":"TX","adminName2":"Travis","lng":-97.824062,"distance":"28.94785","countryCode":"US","postalCode":"78730","adminName1":"Texas","placeName":"Austin","lat":30.360745},{"adminCode2":"209","adminCode1":"TX","adminName2":"Hays","lng":-97.83354,"distance":"28.9766","countryCode":"US","postalCode":"78640","adminName1":"Texas","placeName":"Kyle","lat":29.996599},{"adminCode2":"453","adminCode1":"TX","adminName2":"Travis","lng":-97.6200043,"distance":"29.45836","countryCode":"US","postalCode":"78691","adminName1":"Texas","placeName":"Pflugerville","lat":30.4393696},{"adminCode2":"453","adminCode1":"TX","adminName2":"Travis","lng":-97.719488,"distance":"29.70008","countryCode":"US","postalCode":"78727","adminName1":"Texas","placeName":"Austin","lat":30.425422},{"adminCode2":"453","adminCode1":"TX","adminName2":"Travis","lng":-97.629895,"distance":"29.80076","countryCode":"US","postalCode":"78660","adminName1":"Texas","placeName":"Pflugerville","lat":30.442133},{"adminCode2":"453","adminCode1":"TX","adminName2":"Travis","lng":-97.866633,"distance":"29.92614","countryCode":"US","postalCode":"78733","adminName1":"Texas","placeName":"Austin","lat":30.331355}]}