{"postalCodes":[{"adminCode2":"491","adminCode1":"TX","adminName2":"Williamson","lng":-97.567203,"distance":"0","countryCode":"US","postalCode":"78634","adminName1":"Texas","placeName":"Hutto","lat":30.525725},{"adminCode2":"491","adminCode1":"TX","adminName2":"Williamson","lng":-97.668028,"distance":"9.73749","countryCode":"US","postalCode":"78665","adminName1":"Texas","placeName":"Round Rock","lat":30.51452},{"adminCode2":"491","adminCode1":"TX","adminName2":"Williamson","lng":-97.668028,"distance":"9.73749","countryCode":"US","postalCode":"78664","adminName1":"Texas","placeName":"Round Rock","lat":30.51452},{"adminCode2":"453","adminCode1":"TX","adminName2":"Travis","lng":-97.6200043,"distance":"10.85327","countryCode":"US","postalCode":"78691","adminName1":"Texas","placeName":"Pflugerville","lat":30.4393696},{"adminCode2":"491","adminCode1":"TX","adminName2":"Williamson","lng":-97.678896,"distance":"10.87369","countryCode":"US","postalCode":"78681","adminName1":"Texas","placeName":"Round Rock","lat":30.5082551},{"adminCode2":"453","adminCode1":"TX","adminName2":"Travis","lng":-97.629895,"distance":"11.06683","countryCode":"US","postalCode":"78660","adminName1":"Texas","placeName":"Pflugerville","lat":30.442133},{"adminCode2":"453","adminCode1":"TX","adminName2":"Travis","lng":-97.659533,"distance":"12.56318","countryCode":"US","postalCode":"78764","adminName1":"Texas","placeName":"Austin","lat":30.445502},{"adminCode2":"453","adminCode1":"TX","adminName2":"Travis","lng":-97.681123,"distance":"14.3696","countryCode":"US","postalCode":"78728","adminName1":"Texas","placeName":"Austin","lat":30.441679},{"adminCode2":"491","adminCode1":"TX","adminName2":"Williamson","lng":-97.602552,"distance":"14.96359","countryCode":"US","postalCode":"78682","adminName1":"Texas","placeName":"Round Rock","lat":30.656817},{"adminCode2":"491","adminCode1":"TX","adminName2":"Williamson","lng":-97.602552,"distance":"14.96359","countryCode":"US","postalCode":"78680","adminName1":"Texas","placeName":"Round Rock","lat":30.656817},{"adminCode2":"491","adminCode1":"TX","adminName2":"Williamson","lng":-97.602552,"distance":"14.96359","countryCode":"US","postalCode":"78683","adminName1":"Texas","placeName":"Round Rock","lat":30.656817},{"adminCode2":"491","adminCode1":"TX","adminName2":"Williamson","lng":-97.670704,"distance":"15.50928","countryCode":"US","postalCode":"78626","adminName1":"Texas","placeName":"Georgetown","lat":30.633038},{"adminCode2":"491","adminCode1":"TX","adminName2":"Williamson","lng":-97.6772311,"distance":"15.88706","countryCode":"US","postalCode":"78627","adminName1":"Texas","placeName":"Georgetown","lat":30.6326942},{"adminCode2":"491","adminCode1":"TX","adminName2":"Williamson","lng":-97.4094438,"distance":"15.91461","countryCode":"US","postalCode":"76574","adminName1":"Texas","placeName":"Taylor","lat":30.5707551},{"adminCode2":"491","adminCode1":"TX","adminName2":"Williamson","lng":-97.59286,"distance":"16.74185","countryCode":"US","postalCode":"78674","adminName1":"Texas","placeName":"Weir","lat":30.674667},{"adminCode2":"491","adminCode1":"TX","adminName2":"Williamson","lng":-97.747187,"distance":"17.37974","countryCode":"US","postalCode":"78717","adminName1":"Texas","placeName":"Austin","lat":30.505972},{"adminCode2":"453","adminCode1":"TX","adminName2":"Travis","lng":-97.719488,"distance":"18.3669","countryCode":"US","postalCode":"78727","adminName1":"Texas","placeName":"Austin","lat":30.425422},{"adminCode2":"491","adminCode1":"TX","adminName2":"Williamson","lng":-97.367571,"distance":"19.59912","countryCode":"US","postalCode":"78615","adminName1":"Texas","placeName":"Coupland","lat":30.487161},{"adminCode2":"491","adminCode1":"TX","adminName2":"Williamson","lng":-97.768787,"distance":"20.97975","countryCode":"US","postalCode":"78729","adminName1":"Texas","placeName":"Austin","lat":30.45206},{"adminCode2":"453","adminCode1":"TX","adminName2":"Travis","lng":-97.682658,"distance":"21.03454","countryCode":"US","postalCode":"78753","adminName1":"Texas","placeName":"Austin","lat":30.36485},{"adminCode2":"453","adminCode1":"TX","adminName2":"Travis","lng":-97.532295,"distance":"21.04996","countryCode":"US","postalCode":"78653","adminName1":"Texas","placeName":"Manor","lat":30.338817},{"adminCode2":"453","adminCode1":"TX","adminName2":"Travis","lng":-97.559807,"distance":"21.17425","countryCode":"US","postalCode":"78763","adminName1":"Texas","placeName":"Austin","lat":30.335398},{"adminCode2":"453","adminCode1":"TX","adminName2":"Travis","lng":-97.707758,"distance":"21.37912","countryCode":"US","postalCode":"78758","adminName1":"Texas","placeName":"Austin","lat":30.376431},{"adminCode2":"491","adminCode1":"TX","adminName2":"Williamson","lng":-97.75112495084093,"distance":"21.78207","countryCode":"US","postalCode":"78628","adminName1":"Texas","placeName":"Georgetown","lat":30.641078819332606},{"adminCode2":"453","adminCode1":"TX","adminName2":"Travis","lng":-97.752602,"distance":"22.36214","countryCode":"US","postalCode":"78759","adminName1":"Texas","placeName":"Austin","lat":30.403614},{"adminCode2":"453","adminCode1":"TX","adminName2":"Travis","lng":-97.667267,"distance":"22.5353","countryCode":"US","postalCode":"78754","adminName1":"Texas","placeName":"Austin","lat":30.342331},{"adminCode2":"453","adminCode1":"TX","adminName2":"Travis","lng":-97.715123,"distance":"23.96675","countryCode":"US","postalCode":"78710","adminName1":"Texas","placeName":"Austin","lat":30.351953},{"adminCode2":"491","adminCode1":"TX","adminName2":"Williamson","lng":-97.589147,"distance":"24.08306","countryCode":"US","postalCode":"78673","adminName1":"Texas","placeName":"Walburg","lat":30.741495},{"adminCode2":"491","adminCode1":"TX","adminName2":"Williamson","lng":-97.8202888,"distance":"24.35002","countryCode":"US","postalCode":"78613","adminName1":"Texas","placeName":"Cedar Park","lat":30.505198},{"adminCode2":"491","adminCode1":"TX","adminName2":"Williamson","lng":-97.8202888,"distance":"24.35002","countryCode":"US","postalCode":"78630","adminName1":"Texas","placeName":"Cedar Park","lat":30.505198},{"adminCode2":"453","adminCode1":"TX","adminName2":"Travis","lng":-97.796676,"distance":"24.8105","countryCode":"US","postalCode":"78750","adminName1":"Texas","placeName":"Austin","lat":30.422401},{"adminCode2":"453","adminCode1":"TX","adminName2":"Travis","lng":-97.700394,"distance":"25.08273","countryCode":"US","postalCode":"78752","adminName1":"Texas","placeName":"Austin","lat":30.331562},{"adminCode2":"453","adminCode1":"TX","adminName2":"Travis","lng":-97.731617,"distance":"25.65011","countryCode":"US","postalCode":"78757","adminName1":"Texas","placeName":"Austin","lat":30.343732},{"adminCode2":"453","adminCode1":"TX","adminName2":"Travis","lng":-97.639587,"distance":"26.47123","countryCode":"US","postalCode":"78724","adminName1":"Texas","placeName":"Austin","lat":30.295982},{"adminCode2":"491","adminCode1":"TX","adminName2":"Williamson","lng":-97.445065,"distance":"26.5178","countryCode":"US","postalCode":"76530","adminName1":"Texas","placeName":"Granger","lat":30.739813},{"adminCode2":"453","adminCode1":"TX","adminName2":"Travis","lng":-97.684941,"distance":"26.65979","countryCode":"US","postalCode":"78723","adminName1":"Texas","placeName":"Austin","lat":30.308515},{"adminCode2":"453","adminCode1":"TX","adminName2":"Travis","lng":-97.760887,"distance":"27.18649","countryCode":"US","postalCode":"78731","adminName1":"Texas","placeName":"Austin","lat":30.347129},{"adminCode2":"453","adminCode1":"TX","adminName2":"Travis","lng":-97.832649,"distance":"27.57368","countryCode":"US","postalCode":"78726","adminName1":"Texas","placeName":"Austin","lat":30.43},{"adminCode2":"491","adminCode1":"TX","adminName2":"Williamson","lng":-97.289261,"distance":"27.61275","countryCode":"US","postalCode":"76578","adminName1":"Texas","placeName":"Thrall","lat":30.591981},{"adminCode2":"491","adminCode1":"TX","adminName2":"Williamson","lng":-97.754332,"distance":"27.86131","countryCode":"US","postalCode":"78633","adminName1":"Texas","placeName":"Georgetown","lat":30.717704},{"adminCode2":"453","adminCode1":"TX","adminName2":"Travis","lng":-97.739032,"distance":"27.98151","countryCode":"US","postalCode":"78756","adminName1":"Texas","placeName":"Austin","lat":30.322312},{"adminCode2":"491","adminCode1":"TX","adminName2":"Williamson","lng":-97.8530686,"distance":"28.00145","countryCode":"US","postalCode":"78646","adminName1":"Texas","placeName":"Leander","lat":30.5788055},{"adminCode2":"453","adminCode1":"TX","adminName2":"Travis","lng":-97.724163,"distance":"28.3841","countryCode":"US","postalCode":"78751","adminName1":"Texas","placeName":"Austin","lat":30.309288},{"adminCode2":"491","adminCode1":"TX","adminName2":"Williamson","lng":-97.857453,"distance":"28.52367","countryCode":"US","postalCode":"78641","adminName1":"Texas","placeName":"Leander","lat":30.583474},{"adminCode2":"021","adminCode1":"TX","adminName2":"Bastrop","lng":-97.373748,"distance":"29.17953","countryCode":"US","postalCode":"78621","adminName1":"Texas","placeName":"Elgin","lat":30.323136},{"adminCode2":"453","adminCode1":"TX","adminName2":"Travis","lng":-97.771258,"distance":"29.56478","countryCode":"US","postalCode":"73301","adminName1":"Texas","placeName":"Austin","lat":30.326374},{"adminCode2":"453","adminCode1":"TX","adminName2":"Travis","lng":-97.771258,"distance":"29.56478","countryCode":"US","postalCode":"73344","adminName1":"Texas","placeName":"Austin","lat":30.326374},{"adminCode2":"453","adminCode1":"TX","adminName2":"Travis","lng":-97.771258,"distance":"29.56478","countryCode":"US","postalCode":"78711","adminName1":"Texas","placeName":"Austin","lat":30.326374},{"adminCode2":"453","adminCode1":"TX","adminName2":"Travis","lng":-97.771258,"distance":"29.56478","countryCode":"US","postalCode":"78774","adminName1":"Texas","placeName":"Austin","lat":30.326374},{"adminCode2":"453","adminCode1":"TX","adminName2":"Travis","lng":-97.771258,"distance":"29.56478","countryCode":"US","postalCode":"78720","adminName1":"Texas","placeName":"Austin","lat":30.326374},{"adminCode2":"453","adminCode1":"TX","adminName2":"Travis","lng":-97.771258,"distance":"29.56478","countryCode":"US","postalCode":"78708","adminName1":"Texas","placeName":"Austin","lat":30.326374},{"adminCode2":"453","adminCode1":"TX","adminName2":"Travis","lng":-97.771258,"distance":"29.56478","countryCode":"US","postalCode":"78718","adminName1":"Texas","placeName":"Austin","lat":30.326374},{"adminCode2":"453","adminCode1":"TX","adminName2":"Travis","lng":-97.771258,"distance":"29.56478","countryCode":"US","postalCode":"78761","adminName1":"Texas","placeName":"Austin","lat":30.326374},{"adminCode2":"453","adminCode1":"TX","adminName2":"Travis","lng":-97.771258,"distance":"29.56478","countryCode":"US","postalCode":"78769","adminName1":"Texas","placeName":"Austin","lat":30.326374},{"adminCode2":"453","adminCode1":"TX","adminName2":"Travis","lng":-97.771258,"distance":"29.56478","countryCode":"US","postalCode":"78755","adminName1":"Texas","placeName":"Austin","lat":30.326374},{"adminCode2":"453","adminCode1":"TX","adminName2":"Travis","lng":-97.771258,"distance":"29.56478","countryCode":"US","postalCode":"78765","adminName1":"Texas","placeName":"Austin","lat":30.326374},{"adminCode2":"453","adminCode1":"TX","adminName2":"Travis","lng":-97.771258,"distance":"29.56478","countryCode":"US","postalCode":"78762","adminName1":"Texas","placeName":"Austin","lat":30.326374},{"adminCode2":"453","adminCode1":"TX","adminName2":"Travis","lng":-97.771258,"distance":"29.56478","countryCode":"US","postalCode":"78760","adminName1":"Texas","placeName":"Austin","lat":30.326374},{"adminCode2":"453","adminCode1":"TX","adminName2":"Travis","lng":-97.771258,"distance":"29.56478","countryCode":"US","postalCode":"78709","adminName1":"Texas","placeName":"Austin","lat":30.326374},{"adminCode2":"453","adminCode1":"TX","adminName2":"Travis","lng":-97.771258,"distance":"29.56478","countryCode":"US","postalCode":"78778","adminName1":"Texas","placeName":"Austin","lat":30.326374},{"adminCode2":"453","adminCode1":"TX","adminName2":"Travis","lng":-97.771258,"distance":"29.56478","countryCode":"US","postalCode":"78779","adminName1":"Texas","placeName":"Austin","lat":30.326374},{"adminCode2":"453","adminCode1":"TX","adminName2":"Travis","lng":-97.771258,"distance":"29.56478","countryCode":"US","postalCode":"78773","adminName1":"Texas","placeName":"Austin","lat":30.326374},{"adminCode2":"453","adminCode1":"TX","adminName2":"Travis","lng":-97.771258,"distance":"29.56478","countryCode":"US","postalCode":"78783","adminName1":"Texas","placeName":"Austin","lat":30.326374},{"adminCode2":"453","adminCode1":"TX","adminName2":"Travis","lng":-97.771258,"distance":"29.56478","countryCode":"US","postalCode":"78772","adminName1":"Texas","placeName":"Austin","lat":30.326374},{"adminCode2":"453","adminCode1":"TX","adminName2":"Travis","lng":-97.771258,"distance":"29.56478","countryCode":"US","postalCode":"78651","adminName1":"Texas","placeName":"Mc Neil","lat":30.326374},{"adminCode2":"453","adminCode1":"TX","adminName2":"Travis","lng":-97.71495,"distance":"29.86247","countryCode":"US","postalCode":"78722","adminName1":"Texas","placeName":"Austin","lat":30.289305}]}