{"postalCodes":[{"adminCode2":"491","adminCode1":"TX","adminName2":"Williamson","lng":-97.8530686,"distance":"0","countryCode":"US","postalCode":"78646","adminName1":"Texas","placeName":"Leander","lat":30.5788055},{"adminCode2":"491","adminCode1":"TX","adminName2":"Williamson","lng":-97.8530686,"distance":"0","countryCode":"US","postalCode":"78641","adminName1":"Texas","placeName":"Leander","lat":30.5788055},{"adminCode2":"491","adminCode1":"TX","adminName2":"Williamson","lng":-97.8202888,"distance":"8.76573","countryCode":"US","postalCode":"78613","adminName1":"Texas","placeName":"Cedar Park","lat":30.505198},{"adminCode2":"491","adminCode1":"TX","adminName2":"Williamson","lng":-97.8202888,"distance":"8.76573","countryCode":"US","postalCode":"78630","adminName1":"Texas","placeName":"Cedar Park","lat":30.505198},{"adminCode2":"491","adminCode1":"TX","adminName2":"Williamson","lng":-97.75112495084093,"distance":"11.96306","countryCode":"US","postalCode":"78628","adminName1":"Texas","placeName":"Georgetown","lat":30.641078819332606},{"adminCode2":"491","adminCode1":"TX","adminName2":"Williamson","lng":-97.931598,"distance":"12.00009","countryCode":"US","postalCode":"78642","adminName1":"Texas","placeName":"Liberty Hill","lat":30.662953},{"adminCode2":"491","adminCode1":"TX","adminName2":"Williamson","lng":-97.747187,"distance":"12.97659","countryCode":"US","postalCode":"78717","adminName1":"Texas","placeName":"Austin","lat":30.505972},{"adminCode2":"491","adminCode1":"TX","adminName2":"Williamson","lng":-97.768787,"distance":"16.24142","countryCode":"US","postalCode":"78729","adminName1":"Texas","placeName":"Austin","lat":30.45206},{"adminCode2":"453","adminCode1":"TX","adminName2":"Travis","lng":-97.832649,"distance":"16.66086","countryCode":"US","postalCode":"78726","adminName1":"Texas","placeName":"Austin","lat":30.43},{"adminCode2":"491","adminCode1":"TX","adminName2":"Williamson","lng":-97.6772311,"distance":"17.86257","countryCode":"US","postalCode":"78627","adminName1":"Texas","placeName":"Georgetown","lat":30.6326942},{"adminCode2":"453","adminCode1":"TX","adminName2":"Travis","lng":-97.966945,"distance":"18.09061","countryCode":"US","postalCode":"78645","adminName1":"Texas","placeName":"Leander","lat":30.44901},{"adminCode2":"491","adminCode1":"TX","adminName2":"Williamson","lng":-97.754332,"distance":"18.1032","countryCode":"US","postalCode":"78633","adminName1":"Texas","placeName":"Georgetown","lat":30.717704},{"adminCode2":"453","adminCode1":"TX","adminName2":"Travis","lng":-97.796676,"distance":"18.21042","countryCode":"US","postalCode":"78750","adminName1":"Texas","placeName":"Austin","lat":30.422401},{"adminCode2":"491","adminCode1":"TX","adminName2":"Williamson","lng":-97.678896,"distance":"18.43161","countryCode":"US","postalCode":"78681","adminName1":"Texas","placeName":"Round Rock","lat":30.5082551},{"adminCode2":"491","adminCode1":"TX","adminName2":"Williamson","lng":-97.670704,"distance":"18.46463","countryCode":"US","postalCode":"78626","adminName1":"Texas","placeName":"Georgetown","lat":30.633038},{"adminCode2":"491","adminCode1":"TX","adminName2":"Williamson","lng":-97.668028,"distance":"19.10655","countryCode":"US","postalCode":"78664","adminName1":"Texas","placeName":"Round Rock","lat":30.51452},{"adminCode2":"491","adminCode1":"TX","adminName2":"Williamson","lng":-97.668028,"distance":"19.10655","countryCode":"US","postalCode":"78665","adminName1":"Texas","placeName":"Round Rock","lat":30.51452},{"adminCode2":"453","adminCode1":"TX","adminName2":"Travis","lng":-97.719488,"distance":"21.32209","countryCode":"US","postalCode":"78727","adminName1":"Texas","placeName":"Austin","lat":30.425422},{"adminCode2":"453","adminCode1":"TX","adminName2":"Travis","lng":-97.752602,"distance":"21.72807","countryCode":"US","postalCode":"78759","adminName1":"Texas","placeName":"Austin","lat":30.403614},{"adminCode2":"453","adminCode1":"TX","adminName2":"Travis","lng":-97.681123,"distance":"22.445","countryCode":"US","postalCode":"78728","adminName1":"Texas","placeName":"Austin","lat":30.441679},{"adminCode2":"453","adminCode1":"TX","adminName2":"Travis","lng":-97.900685,"distance":"23.09047","countryCode":"US","postalCode":"78732","adminName1":"Texas","placeName":"Austin","lat":30.375233},{"adminCode2":"453","adminCode1":"TX","adminName2":"Travis","lng":-97.659533,"distance":"23.73588","countryCode":"US","postalCode":"78764","adminName1":"Texas","placeName":"Austin","lat":30.445502},{"adminCode2":"453","adminCode1":"TX","adminName2":"Travis","lng":-97.824062,"distance":"24.40489","countryCode":"US","postalCode":"78730","adminName1":"Texas","placeName":"Austin","lat":30.360745},{"adminCode2":"453","adminCode1":"TX","adminName2":"Travis","lng":-97.942721,"distance":"24.70794","countryCode":"US","postalCode":"78734","adminName1":"Texas","placeName":"Austin","lat":30.370457},{"adminCode2":"491","adminCode1":"TX","adminName2":"Williamson","lng":-97.602552,"distance":"25.49251","countryCode":"US","postalCode":"78682","adminName1":"Texas","placeName":"Round Rock","lat":30.656817},{"adminCode2":"491","adminCode1":"TX","adminName2":"Williamson","lng":-97.602552,"distance":"25.49251","countryCode":"US","postalCode":"78680","adminName1":"Texas","placeName":"Round Rock","lat":30.656817},{"adminCode2":"491","adminCode1":"TX","adminName2":"Williamson","lng":-97.602552,"distance":"25.49251","countryCode":"US","postalCode":"78683","adminName1":"Texas","placeName":"Round Rock","lat":30.656817},{"adminCode2":"453","adminCode1":"TX","adminName2":"Travis","lng":-97.629895,"distance":"26.22941","countryCode":"US","postalCode":"78660","adminName1":"Texas","placeName":"Pflugerville","lat":30.442133},{"adminCode2":"053","adminCode1":"TX","adminName2":"Burnet","lng":-98.052932,"distance":"26.28677","countryCode":"US","postalCode":"78605","adminName1":"Texas","placeName":"Bertram","lat":30.741082},{"adminCode2":"491","adminCode1":"TX","adminName2":"Williamson","lng":-97.78119,"distance":"26.35003","countryCode":"US","postalCode":"76527","adminName1":"Texas","placeName":"Florence","lat":30.807586},{"adminCode2":"453","adminCode1":"TX","adminName2":"Travis","lng":-97.707758,"distance":"26.46186","countryCode":"US","postalCode":"78758","adminName1":"Texas","placeName":"Austin","lat":30.376431},{"adminCode2":"491","adminCode1":"TX","adminName2":"Williamson","lng":-97.59286,"distance":"27.08222","countryCode":"US","postalCode":"78674","adminName1":"Texas","placeName":"Weir","lat":30.674667},{"adminCode2":"453","adminCode1":"TX","adminName2":"Travis","lng":-97.6200043,"distance":"27.18157","countryCode":"US","postalCode":"78691","adminName1":"Texas","placeName":"Pflugerville","lat":30.4393696},{"adminCode2":"453","adminCode1":"TX","adminName2":"Travis","lng":-97.760887,"distance":"27.2329","countryCode":"US","postalCode":"78731","adminName1":"Texas","placeName":"Austin","lat":30.347129},{"adminCode2":"453","adminCode1":"TX","adminName2":"Travis","lng":-97.866633,"distance":"27.54462","countryCode":"US","postalCode":"78733","adminName1":"Texas","placeName":"Austin","lat":30.331355},{"adminCode2":"491","adminCode1":"TX","adminName2":"Williamson","lng":-97.567203,"distance":"28.00145","countryCode":"US","postalCode":"78634","adminName1":"Texas","placeName":"Hutto","lat":30.525725},{"adminCode2":"453","adminCode1":"TX","adminName2":"Travis","lng":-97.715123,"distance":"28.47827","countryCode":"US","postalCode":"78710","adminName1":"Texas","placeName":"Austin","lat":30.351953},{"adminCode2":"453","adminCode1":"TX","adminName2":"Travis","lng":-98.05392,"distance":"28.48438","countryCode":"US","postalCode":"78669","adminName1":"Texas","placeName":"Spicewood","lat":30.389945},{"adminCode2":"453","adminCode1":"TX","adminName2":"Travis","lng":-97.731617,"distance":"28.61249","countryCode":"US","postalCode":"78757","adminName1":"Texas","placeName":"Austin","lat":30.343732},{"adminCode2":"453","adminCode1":"TX","adminName2":"Travis","lng":-97.682658,"distance":"28.8555","countryCode":"US","postalCode":"78753","adminName1":"Texas","placeName":"Austin","lat":30.36485},{"adminCode2":"453","adminCode1":"TX","adminName2":"Travis","lng":-97.771258,"distance":"29.14257","countryCode":"US","postalCode":"73301","adminName1":"Texas","placeName":"Austin","lat":30.326374},{"adminCode2":"453","adminCode1":"TX","adminName2":"Travis","lng":-97.771258,"distance":"29.14257","countryCode":"US","postalCode":"73344","adminName1":"Texas","placeName":"Austin","lat":30.326374},{"adminCode2":"453","adminCode1":"TX","adminName2":"Travis","lng":-97.771258,"distance":"29.14257","countryCode":"US","postalCode":"78711","adminName1":"Texas","placeName":"Austin","lat":30.326374},{"adminCode2":"453","adminCode1":"TX","adminName2":"Travis","lng":-97.771258,"distance":"29.14257","countryCode":"US","postalCode":"78774","adminName1":"Texas","placeName":"Austin","lat":30.326374},{"adminCode2":"453","adminCode1":"TX","adminName2":"Travis","lng":-97.771258,"distance":"29.14257","countryCode":"US","postalCode":"78720","adminName1":"Texas","placeName":"Austin","lat":30.326374},{"adminCode2":"453","adminCode1":"TX","adminName2":"Travis","lng":-97.771258,"distance":"29.14257","countryCode":"US","postalCode":"78760","adminName1":"Texas","placeName":"Austin","lat":30.326374},{"adminCode2":"453","adminCode1":"TX","adminName2":"Travis","lng":-97.771258,"distance":"29.14257","countryCode":"US","postalCode":"78761","adminName1":"Texas","placeName":"Austin","lat":30.326374},{"adminCode2":"453","adminCode1":"TX","adminName2":"Travis","lng":-97.771258,"distance":"29.14257","countryCode":"US","postalCode":"78755","adminName1":"Texas","placeName":"Austin","lat":30.326374},{"adminCode2":"453","adminCode1":"TX","adminName2":"Travis","lng":-97.771258,"distance":"29.14257","countryCode":"US","postalCode":"78765","adminName1":"Texas","placeName":"Austin","lat":30.326374},{"adminCode2":"453","adminCode1":"TX","adminName2":"Travis","lng":-97.771258,"distance":"29.14257","countryCode":"US","postalCode":"78762","adminName1":"Texas","placeName":"Austin","lat":30.326374},{"adminCode2":"453","adminCode1":"TX","adminName2":"Travis","lng":-97.771258,"distance":"29.14257","countryCode":"US","postalCode":"78718","adminName1":"Texas","placeName":"Austin","lat":30.326374},{"adminCode2":"453","adminCode1":"TX","adminName2":"Travis","lng":-97.771258,"distance":"29.14257","countryCode":"US","postalCode":"78769","adminName1":"Texas","placeName":"Austin","lat":30.326374},{"adminCode2":"453","adminCode1":"TX","adminName2":"Travis","lng":-97.771258,"distance":"29.14257","countryCode":"US","postalCode":"78708","adminName1":"Texas","placeName":"Austin","lat":30.326374},{"adminCode2":"453","adminCode1":"TX","adminName2":"Travis","lng":-97.771258,"distance":"29.14257","countryCode":"US","postalCode":"78709","adminName1":"Texas","placeName":"Austin","lat":30.326374},{"adminCode2":"453","adminCode1":"TX","adminName2":"Travis","lng":-97.771258,"distance":"29.14257","countryCode":"US","postalCode":"78778","adminName1":"Texas","placeName":"Austin","lat":30.326374},{"adminCode2":"453","adminCode1":"TX","adminName2":"Travis","lng":-97.771258,"distance":"29.14257","countryCode":"US","postalCode":"78779","adminName1":"Texas","placeName":"Austin","lat":30.326374},{"adminCode2":"453","adminCode1":"TX","adminName2":"Travis","lng":-97.771258,"distance":"29.14257","countryCode":"US","postalCode":"78773","adminName1":"Texas","placeName":"Austin","lat":30.326374},{"adminCode2":"453","adminCode1":"TX","adminName2":"Travis","lng":-97.771258,"distance":"29.14257","countryCode":"US","postalCode":"78783","adminName1":"Texas","placeName":"Austin","lat":30.326374},{"adminCode2":"453","adminCode1":"TX","adminName2":"Travis","lng":-97.771258,"distance":"29.14257","countryCode":"US","postalCode":"78772","adminName1":"Texas","placeName":"Austin","lat":30.326374},{"adminCode2":"453","adminCode1":"TX","adminName2":"Travis","lng":-97.771258,"distance":"29.14257","countryCode":"US","postalCode":"78651","adminName1":"Texas","placeName":"Mc Neil","lat":30.326374},{"adminCode2":"453","adminCode1":"TX","adminName2":"Travis","lng":-97.85877,"distance":"29.20155","countryCode":"US","postalCode":"78716","adminName1":"Texas","placeName":"Austin","lat":30.316223},{"adminCode2":"453","adminCode1":"TX","adminName2":"Travis","lng":-97.982367,"distance":"29.93778","countryCode":"US","postalCode":"78738","adminName1":"Texas","placeName":"Austin","lat":30.333708}]}