{"postalCodes":[{"adminCode2":"453","adminCode1":"TX","adminName2":"Travis","lng":-97.966945,"distance":"0","countryCode":"US","postalCode":"78645","adminName1":"Texas","placeName":"Leander","lat":30.44901},{"adminCode2":"453","adminCode1":"TX","adminName2":"Travis","lng":-97.942721,"distance":"9.03789","countryCode":"US","postalCode":"78734","adminName1":"Texas","placeName":"Austin","lat":30.370457},{"adminCode2":"453","adminCode1":"TX","adminName2":"Travis","lng":-97.900685,"distance":"10.37606","countryCode":"US","postalCode":"78732","adminName1":"Texas","placeName":"Austin","lat":30.375233},{"adminCode2":"453","adminCode1":"TX","adminName2":"Travis","lng":-98.05392,"distance":"10.61496","countryCode":"US","postalCode":"78669","adminName1":"Texas","placeName":"Spicewood","lat":30.389945},{"adminCode2":"453","adminCode1":"TX","adminName2":"Travis","lng":-97.982367,"distance":"12.90543","countryCode":"US","postalCode":"78738","adminName1":"Texas","placeName":"Austin","lat":30.333708},{"adminCode2":"453","adminCode1":"TX","adminName2":"Travis","lng":-97.832649,"distance":"13.04648","countryCode":"US","postalCode":"78726","adminName1":"Texas","placeName":"Austin","lat":30.43},{"adminCode2":"491","adminCode1":"TX","adminName2":"Williamson","lng":-97.8202888,"distance":"15.37968","countryCode":"US","postalCode":"78613","adminName1":"Texas","placeName":"Cedar Park","lat":30.505198},{"adminCode2":"491","adminCode1":"TX","adminName2":"Williamson","lng":-97.8202888,"distance":"15.37968","countryCode":"US","postalCode":"78630","adminName1":"Texas","placeName":"Cedar Park","lat":30.505198},{"adminCode2":"453","adminCode1":"TX","adminName2":"Travis","lng":-97.866633,"distance":"16.239","countryCode":"US","postalCode":"78733","adminName1":"Texas","placeName":"Austin","lat":30.331355},{"adminCode2":"453","adminCode1":"TX","adminName2":"Travis","lng":-97.796676,"distance":"16.58922","countryCode":"US","postalCode":"78750","adminName1":"Texas","placeName":"Austin","lat":30.422401},{"adminCode2":"453","adminCode1":"TX","adminName2":"Travis","lng":-97.824062,"distance":"16.85427","countryCode":"US","postalCode":"78730","adminName1":"Texas","placeName":"Austin","lat":30.360745},{"adminCode2":"453","adminCode1":"TX","adminName2":"Travis","lng":-97.85877,"distance":"18.04591","countryCode":"US","postalCode":"78716","adminName1":"Texas","placeName":"Austin","lat":30.316223},{"adminCode2":"491","adminCode1":"TX","adminName2":"Williamson","lng":-97.8530686,"distance":"18.09061","countryCode":"US","postalCode":"78646","adminName1":"Texas","placeName":"Leander","lat":30.5788055},{"adminCode2":"491","adminCode1":"TX","adminName2":"Williamson","lng":-97.857453,"distance":"18.26283","countryCode":"US","postalCode":"78641","adminName1":"Texas","placeName":"Leander","lat":30.583474},{"adminCode2":"491","adminCode1":"TX","adminName2":"Williamson","lng":-97.768787,"distance":"18.99704","countryCode":"US","postalCode":"78729","adminName1":"Texas","placeName":"Austin","lat":30.45206},{"adminCode2":"453","adminCode1":"TX","adminName2":"Travis","lng":-97.752602,"distance":"21.1613","countryCode":"US","postalCode":"78759","adminName1":"Texas","placeName":"Austin","lat":30.403614},{"adminCode2":"491","adminCode1":"TX","adminName2":"Williamson","lng":-97.747187,"distance":"21.99043","countryCode":"US","postalCode":"78717","adminName1":"Texas","placeName":"Austin","lat":30.505972},{"adminCode2":"453","adminCode1":"TX","adminName2":"Travis","lng":-97.818113,"distance":"22.11652","countryCode":"US","postalCode":"78746","adminName1":"Texas","placeName":"Austin","lat":30.2971},{"adminCode2":"453","adminCode1":"TX","adminName2":"Travis","lng":-97.760887,"distance":"22.77844","countryCode":"US","postalCode":"78731","adminName1":"Texas","placeName":"Austin","lat":30.347129},{"adminCode2":"453","adminCode1":"TX","adminName2":"Travis","lng":-97.771258,"distance":"23.19958","countryCode":"US","postalCode":"73301","adminName1":"Texas","placeName":"Austin","lat":30.326374},{"adminCode2":"453","adminCode1":"TX","adminName2":"Travis","lng":-97.771258,"distance":"23.19958","countryCode":"US","postalCode":"73344","adminName1":"Texas","placeName":"Austin","lat":30.326374},{"adminCode2":"453","adminCode1":"TX","adminName2":"Travis","lng":-97.771258,"distance":"23.19958","countryCode":"US","postalCode":"78711","adminName1":"Texas","placeName":"Austin","lat":30.326374},{"adminCode2":"453","adminCode1":"TX","adminName2":"Travis","lng":-97.771258,"distance":"23.19958","countryCode":"US","postalCode":"78720","adminName1":"Texas","placeName":"Austin","lat":30.326374},{"adminCode2":"453","adminCode1":"TX","adminName2":"Travis","lng":-97.771258,"distance":"23.19958","countryCode":"US","postalCode":"78774","adminName1":"Texas","placeName":"Austin","lat":30.326374},{"adminCode2":"453","adminCode1":"TX","adminName2":"Travis","lng":-97.771258,"distance":"23.19958","countryCode":"US","postalCode":"78708","adminName1":"Texas","placeName":"Austin","lat":30.326374},{"adminCode2":"453","adminCode1":"TX","adminName2":"Travis","lng":-97.771258,"distance":"23.19958","countryCode":"US","postalCode":"78760","adminName1":"Texas","placeName":"Austin","lat":30.326374},{"adminCode2":"453","adminCode1":"TX","adminName2":"Travis","lng":-97.771258,"distance":"23.19958","countryCode":"US","postalCode":"78718","adminName1":"Texas","placeName":"Austin","lat":30.326374},{"adminCode2":"453","adminCode1":"TX","adminName2":"Travis","lng":-97.771258,"distance":"23.19958","countryCode":"US","postalCode":"78762","adminName1":"Texas","placeName":"Austin","lat":30.326374},{"adminCode2":"453","adminCode1":"TX","adminName2":"Travis","lng":-97.771258,"distance":"23.19958","countryCode":"US","postalCode":"78765","adminName1":"Texas","placeName":"Austin","lat":30.326374},{"adminCode2":"453","adminCode1":"TX","adminName2":"Travis","lng":-97.771258,"distance":"23.19958","countryCode":"US","postalCode":"78769","adminName1":"Texas","placeName":"Austin","lat":30.326374},{"adminCode2":"453","adminCode1":"TX","adminName2":"Travis","lng":-97.771258,"distance":"23.19958","countryCode":"US","postalCode":"78761","adminName1":"Texas","placeName":"Austin","lat":30.326374},{"adminCode2":"453","adminCode1":"TX","adminName2":"Travis","lng":-97.771258,"distance":"23.19958","countryCode":"US","postalCode":"78755","adminName1":"Texas","placeName":"Austin","lat":30.326374},{"adminCode2":"453","adminCode1":"TX","adminName2":"Travis","lng":-97.771258,"distance":"23.19958","countryCode":"US","postalCode":"78709","adminName1":"Texas","placeName":"Austin","lat":30.326374},{"adminCode2":"453","adminCode1":"TX","adminName2":"Travis","lng":-97.771258,"distance":"23.19958","countryCode":"US","postalCode":"78773","adminName1":"Texas","placeName":"Austin","lat":30.326374},{"adminCode2":"453","adminCode1":"TX","adminName2":"Travis","lng":-97.771258,"distance":"23.19958","countryCode":"US","postalCode":"78783","adminName1":"Texas","placeName":"Austin","lat":30.326374},{"adminCode2":"453","adminCode1":"TX","adminName2":"Travis","lng":-97.771258,"distance":"23.19958","countryCode":"US","postalCode":"78772","adminName1":"Texas","placeName":"Austin","lat":30.326374},{"adminCode2":"453","adminCode1":"TX","adminName2":"Travis","lng":-97.771258,"distance":"23.19958","countryCode":"US","postalCode":"78778","adminName1":"Texas","placeName":"Austin","lat":30.326374},{"adminCode2":"453","adminCode1":"TX","adminName2":"Travis","lng":-97.771258,"distance":"23.19958","countryCode":"US","postalCode":"78779","adminName1":"Texas","placeName":"Austin","lat":30.326374},{"adminCode2":"453","adminCode1":"TX","adminName2":"Travis","lng":-97.771258,"distance":"23.19958","countryCode":"US","postalCode":"78651","adminName1":"Texas","placeName":"Mc Neil","lat":30.326374},{"adminCode2":"453","adminCode1":"TX","adminName2":"Travis","lng":-97.915968,"distance":"23.26682","countryCode":"US","postalCode":"78736","adminName1":"Texas","placeName":"Austin","lat":30.244433},{"adminCode2":"453","adminCode1":"TX","adminName2":"Travis","lng":-97.719488,"distance":"23.86724","countryCode":"US","postalCode":"78727","adminName1":"Texas","placeName":"Austin","lat":30.425422},{"adminCode2":"491","adminCode1":"TX","adminName2":"Williamson","lng":-97.931598,"distance":"24.02778","countryCode":"US","postalCode":"78642","adminName1":"Texas","placeName":"Liberty Hill","lat":30.662953},{"adminCode2":"453","adminCode1":"TX","adminName2":"Travis","lng":-97.841423,"distance":"25.29317","countryCode":"US","postalCode":"78735","adminName1":"Texas","placeName":"Austin","lat":30.248978},{"adminCode2":"453","adminCode1":"TX","adminName2":"Travis","lng":-97.731617,"distance":"25.42446","countryCode":"US","postalCode":"78757","adminName1":"Texas","placeName":"Austin","lat":30.343732},{"adminCode2":"453","adminCode1":"TX","adminName2":"Travis","lng":-97.739032,"distance":"26.00663","countryCode":"US","postalCode":"78756","adminName1":"Texas","placeName":"Austin","lat":30.322312},{"adminCode2":"453","adminCode1":"TX","adminName2":"Travis","lng":-97.707758,"distance":"26.1308","countryCode":"US","postalCode":"78758","adminName1":"Texas","placeName":"Austin","lat":30.376431},{"adminCode2":"453","adminCode1":"TX","adminName2":"Travis","lng":-97.764809,"distance":"26.19126","countryCode":"US","postalCode":"78703","adminName1":"Texas","placeName":"Austin","lat":30.290671},{"adminCode2":"453","adminCode1":"TX","adminName2":"Travis","lng":-97.715123,"distance":"26.45175","countryCode":"US","postalCode":"78710","adminName1":"Texas","placeName":"Austin","lat":30.351953},{"adminCode2":"453","adminCode1":"TX","adminName2":"Travis","lng":-97.942749,"distance":"26.60003","countryCode":"US","postalCode":"78737","adminName1":"Texas","placeName":"Austin","lat":30.210692},{"adminCode2":"453","adminCode1":"TX","adminName2":"Travis","lng":-97.681123,"distance":"27.41043","countryCode":"US","postalCode":"78728","adminName1":"Texas","placeName":"Austin","lat":30.441679},{"adminCode2":"209","adminCode1":"TX","adminName2":"Hays","lng":-98.102947,"distance":"27.94579","countryCode":"US","postalCode":"78620","adminName1":"Texas","placeName":"Dripping Springs","lat":30.226768},{"adminCode2":"453","adminCode1":"TX","adminName2":"Travis","lng":-97.724163,"distance":"27.99471","countryCode":"US","postalCode":"78751","adminName1":"Texas","placeName":"Austin","lat":30.309288},{"adminCode2":"453","adminCode1":"TX","adminName2":"Travis","lng":-97.739627,"distance":"28.10063","countryCode":"US","postalCode":"78705","adminName1":"Texas","placeName":"Austin","lat":30.289619},{"adminCode2":"453","adminCode1":"TX","adminName2":"Travis","lng":-97.850755,"distance":"28.14047","countryCode":"US","postalCode":"78749","adminName1":"Texas","placeName":"Austin","lat":30.216641},{"adminCode2":"491","adminCode1":"TX","adminName2":"Williamson","lng":-97.678896,"distance":"28.37753","countryCode":"US","postalCode":"78681","adminName1":"Texas","placeName":"Round Rock","lat":30.5082551},{"adminCode2":"453","adminCode1":"TX","adminName2":"Travis","lng":-97.700394,"distance":"28.70765","countryCode":"US","postalCode":"78752","adminName1":"Texas","placeName":"Austin","lat":30.331562},{"adminCode2":"453","adminCode1":"TX","adminName2":"Travis","lng":-97.735394,"distance":"28.72581","countryCode":"US","postalCode":"78712","adminName1":"Texas","placeName":"Austin","lat":30.285207},{"adminCode2":"453","adminCode1":"TX","adminName2":"Travis","lng":-97.682658,"distance":"28.82322","countryCode":"US","postalCode":"78753","adminName1":"Texas","placeName":"Austin","lat":30.36485},{"adminCode2":"453","adminCode1":"TX","adminName2":"Travis","lng":-97.742559,"distance":"29.22222","countryCode":"US","postalCode":"78701","adminName1":"Texas","placeName":"Austin","lat":30.271289},{"adminCode2":"453","adminCode1":"TX","adminName2":"Travis","lng":-97.659533,"distance":"29.46988","countryCode":"US","postalCode":"78764","adminName1":"Texas","placeName":"Austin","lat":30.445502},{"adminCode2":"453","adminCode1":"TX","adminName2":"Travis","lng":-97.7430608,"distance":"29.50041","countryCode":"US","postalCode":"78768","adminName1":"Texas","placeName":"Austin","lat":30.267153},{"adminCode2":"453","adminCode1":"TX","adminName2":"Travis","lng":-97.7430608,"distance":"29.50041","countryCode":"US","postalCode":"78713","adminName1":"Texas","placeName":"Austin","lat":30.267153},{"adminCode2":"453","adminCode1":"TX","adminName2":"Travis","lng":-97.7430608,"distance":"29.50041","countryCode":"US","postalCode":"78767","adminName1":"Texas","placeName":"Austin","lat":30.267153},{"adminCode2":"453","adminCode1":"TX","adminName2":"Travis","lng":-97.7430608,"distance":"29.50041","countryCode":"US","postalCode":"78714","adminName1":"Texas","placeName":"Austin","lat":30.267153},{"adminCode2":"453","adminCode1":"TX","adminName2":"Travis","lng":-97.7430608,"distance":"29.50041","countryCode":"US","postalCode":"78766","adminName1":"Texas","placeName":"Austin","lat":30.267153},{"adminCode2":"453","adminCode1":"TX","adminName2":"Travis","lng":-97.7430608,"distance":"29.50041","countryCode":"US","postalCode":"78715","adminName1":"Texas","placeName":"Austin","lat":30.267153},{"adminCode2":"453","adminCode1":"TX","adminName2":"Travis","lng":-97.7430608,"distance":"29.50041","countryCode":"US","postalCode":"78799","adminName1":"Texas","placeName":"Austin","lat":30.267153},{"adminCode2":"491","adminCode1":"TX","adminName2":"Williamson","lng":-97.668028,"distance":"29.55453","countryCode":"US","postalCode":"78665","adminName1":"Texas","placeName":"Round Rock","lat":30.51452},{"adminCode2":"491","adminCode1":"TX","adminName2":"Williamson","lng":-97.668028,"distance":"29.55453","countryCode":"US","postalCode":"78664","adminName1":"Texas","placeName":"Round Rock","lat":30.51452},{"adminCode2":"491","adminCode1":"TX","adminName2":"Williamson","lng":-97.75112495084093,"distance":"29.71868","countryCode":"US","postalCode":"78628","adminName1":"Texas","placeName":"Georgetown","lat":30.641078819332606},{"adminCode2":"453","adminCode1":"TX","adminName2":"Travis","lng":-97.765788,"distance":"29.96874","countryCode":"US","postalCode":"78704","adminName1":"Texas","placeName":"Austin","lat":30.242831}]}