{"postalCodes":[{"adminCode2":"453","adminCode1":"TX","adminName2":"Travis","lng":-97.532295,"distance":"0","countryCode":"US","postalCode":"78653","adminName1":"Texas","placeName":"Manor","lat":30.338817},{"adminCode2":"453","adminCode1":"TX","adminName2":"Travis","lng":-97.559807,"distance":"2.6674","countryCode":"US","postalCode":"78763","adminName1":"Texas","placeName":"Austin","lat":30.335398},{"adminCode2":"453","adminCode1":"TX","adminName2":"Travis","lng":-97.639587,"distance":"11.3463","countryCode":"US","postalCode":"78724","adminName1":"Texas","placeName":"Austin","lat":30.295982},{"adminCode2":"453","adminCode1":"TX","adminName2":"Travis","lng":-97.624301,"distance":"12.74493","countryCode":"US","postalCode":"78725","adminName1":"Texas","placeName":"Austin","lat":30.256186},{"adminCode2":"453","adminCode1":"TX","adminName2":"Travis","lng":-97.667267,"distance":"12.95792","countryCode":"US","postalCode":"78754","adminName1":"Texas","placeName":"Austin","lat":30.342331},{"adminCode2":"453","adminCode1":"TX","adminName2":"Travis","lng":-97.6200043,"distance":"13.99183","countryCode":"US","postalCode":"78691","adminName1":"Texas","placeName":"Pflugerville","lat":30.4393696},{"adminCode2":"453","adminCode1":"TX","adminName2":"Travis","lng":-97.682658,"distance":"14.71481","countryCode":"US","postalCode":"78753","adminName1":"Texas","placeName":"Austin","lat":30.36485},{"adminCode2":"453","adminCode1":"TX","adminName2":"Travis","lng":-97.629895,"distance":"14.81873","countryCode":"US","postalCode":"78660","adminName1":"Texas","placeName":"Pflugerville","lat":30.442133},{"adminCode2":"453","adminCode1":"TX","adminName2":"Travis","lng":-97.684941,"distance":"15.033","countryCode":"US","postalCode":"78723","adminName1":"Texas","placeName":"Austin","lat":30.308515},{"adminCode2":"021","adminCode1":"TX","adminName2":"Bastrop","lng":-97.373748,"distance":"15.31536","countryCode":"US","postalCode":"78621","adminName1":"Texas","placeName":"Elgin","lat":30.323136},{"adminCode2":"453","adminCode1":"TX","adminName2":"Travis","lng":-97.700394,"distance":"16.15196","countryCode":"US","postalCode":"78752","adminName1":"Texas","placeName":"Austin","lat":30.331562},{"adminCode2":"453","adminCode1":"TX","adminName2":"Travis","lng":-97.686798,"distance":"16.58109","countryCode":"US","postalCode":"78721","adminName1":"Texas","placeName":"Austin","lat":30.272144},{"adminCode2":"453","adminCode1":"TX","adminName2":"Travis","lng":-97.659533,"distance":"17.01872","countryCode":"US","postalCode":"78764","adminName1":"Texas","placeName":"Austin","lat":30.445502},{"adminCode2":"453","adminCode1":"TX","adminName2":"Travis","lng":-97.707758,"distance":"17.34637","countryCode":"US","postalCode":"78758","adminName1":"Texas","placeName":"Austin","lat":30.376431},{"adminCode2":"453","adminCode1":"TX","adminName2":"Travis","lng":-97.715123,"distance":"17.60416","countryCode":"US","postalCode":"78710","adminName1":"Texas","placeName":"Austin","lat":30.351953},{"adminCode2":"453","adminCode1":"TX","adminName2":"Travis","lng":-97.670349,"distance":"17.8502","countryCode":"US","postalCode":"78742","adminName1":"Texas","placeName":"Austin","lat":30.231296},{"adminCode2":"453","adminCode1":"TX","adminName2":"Travis","lng":-97.681123,"distance":"18.29119","countryCode":"US","postalCode":"78728","adminName1":"Texas","placeName":"Austin","lat":30.441679},{"adminCode2":"453","adminCode1":"TX","adminName2":"Travis","lng":-97.71495,"distance":"18.37648","countryCode":"US","postalCode":"78722","adminName1":"Texas","placeName":"Austin","lat":30.289305},{"adminCode2":"453","adminCode1":"TX","adminName2":"Travis","lng":-97.724163,"distance":"18.70533","countryCode":"US","postalCode":"78751","adminName1":"Texas","placeName":"Austin","lat":30.309288},{"adminCode2":"453","adminCode1":"TX","adminName2":"Travis","lng":-97.731617,"distance":"19.13477","countryCode":"US","postalCode":"78757","adminName1":"Texas","placeName":"Austin","lat":30.343732},{"adminCode2":"453","adminCode1":"TX","adminName2":"Travis","lng":-97.716589,"distance":"19.55895","countryCode":"US","postalCode":"78702","adminName1":"Texas","placeName":"Austin","lat":30.263817},{"adminCode2":"453","adminCode1":"TX","adminName2":"Travis","lng":-97.613443,"distance":"19.86402","countryCode":"US","postalCode":"78617","adminName1":"Texas","placeName":"Del Valle","lat":30.174492},{"adminCode2":"453","adminCode1":"TX","adminName2":"Travis","lng":-97.739032,"distance":"19.92537","countryCode":"US","postalCode":"78756","adminName1":"Texas","placeName":"Austin","lat":30.322312},{"adminCode2":"453","adminCode1":"TX","adminName2":"Travis","lng":-97.719488,"distance":"20.37476","countryCode":"US","postalCode":"78727","adminName1":"Texas","placeName":"Austin","lat":30.425422},{"adminCode2":"453","adminCode1":"TX","adminName2":"Travis","lng":-97.735394,"distance":"20.38617","countryCode":"US","postalCode":"78712","adminName1":"Texas","placeName":"Austin","lat":30.285207},{"adminCode2":"453","adminCode1":"TX","adminName2":"Travis","lng":-97.739627,"distance":"20.63924","countryCode":"US","postalCode":"78705","adminName1":"Texas","placeName":"Austin","lat":30.289619},{"adminCode2":"491","adminCode1":"TX","adminName2":"Williamson","lng":-97.567203,"distance":"21.04996","countryCode":"US","postalCode":"78634","adminName1":"Texas","placeName":"Hutto","lat":30.525725},{"adminCode2":"453","adminCode1":"TX","adminName2":"Travis","lng":-97.742559,"distance":"21.53572","countryCode":"US","postalCode":"78701","adminName1":"Texas","placeName":"Austin","lat":30.271289},{"adminCode2":"453","adminCode1":"TX","adminName2":"Travis","lng":-97.7430608,"distance":"21.74554","countryCode":"US","postalCode":"78714","adminName1":"Texas","placeName":"Austin","lat":30.267153},{"adminCode2":"453","adminCode1":"TX","adminName2":"Travis","lng":-97.7430608,"distance":"21.74554","countryCode":"US","postalCode":"78713","adminName1":"Texas","placeName":"Austin","lat":30.267153},{"adminCode2":"453","adminCode1":"TX","adminName2":"Travis","lng":-97.7430608,"distance":"21.74554","countryCode":"US","postalCode":"78766","adminName1":"Texas","placeName":"Austin","lat":30.267153},{"adminCode2":"453","adminCode1":"TX","adminName2":"Travis","lng":-97.7430608,"distance":"21.74554","countryCode":"US","postalCode":"78767","adminName1":"Texas","placeName":"Austin","lat":30.267153},{"adminCode2":"453","adminCode1":"TX","adminName2":"Travis","lng":-97.7430608,"distance":"21.74554","countryCode":"US","postalCode":"78768","adminName1":"Texas","placeName":"Austin","lat":30.267153},{"adminCode2":"453","adminCode1":"TX","adminName2":"Travis","lng":-97.7430608,"distance":"21.74554","countryCode":"US","postalCode":"78715","adminName1":"Texas","placeName":"Austin","lat":30.267153},{"adminCode2":"453","adminCode1":"TX","adminName2":"Travis","lng":-97.7430608,"distance":"21.74554","countryCode":"US","postalCode":"78799","adminName1":"Texas","placeName":"Austin","lat":30.267153},{"adminCode2":"453","adminCode1":"TX","adminName2":"Travis","lng":-97.722317,"distance":"21.79977","countryCode":"US","postalCode":"78741","adminName1":"Texas","placeName":"Austin","lat":30.231513},{"adminCode2":"453","adminCode1":"TX","adminName2":"Travis","lng":-97.666701,"distance":"21.8519","countryCode":"US","postalCode":"78719","adminName1":"Texas","placeName":"Austin","lat":30.180243},{"adminCode2":"453","adminCode1":"TX","adminName2":"Travis","lng":-97.760887,"distance":"21.9548","countryCode":"US","postalCode":"78731","adminName1":"Texas","placeName":"Austin","lat":30.347129},{"adminCode2":"453","adminCode1":"TX","adminName2":"Travis","lng":-97.752602,"distance":"22.32854","countryCode":"US","postalCode":"78759","adminName1":"Texas","placeName":"Austin","lat":30.403614},{"adminCode2":"491","adminCode1":"TX","adminName2":"Williamson","lng":-97.367571,"distance":"22.83757","countryCode":"US","postalCode":"78615","adminName1":"Texas","placeName":"Coupland","lat":30.487161},{"adminCode2":"453","adminCode1":"TX","adminName2":"Travis","lng":-97.764809,"distance":"22.95118","countryCode":"US","postalCode":"78703","adminName1":"Texas","placeName":"Austin","lat":30.290671},{"adminCode2":"453","adminCode1":"TX","adminName2":"Travis","lng":-97.771258,"distance":"22.97465","countryCode":"US","postalCode":"73301","adminName1":"Texas","placeName":"Austin","lat":30.326374},{"adminCode2":"453","adminCode1":"TX","adminName2":"Travis","lng":-97.771258,"distance":"22.97465","countryCode":"US","postalCode":"73344","adminName1":"Texas","placeName":"Austin","lat":30.326374},{"adminCode2":"453","adminCode1":"TX","adminName2":"Travis","lng":-97.771258,"distance":"22.97465","countryCode":"US","postalCode":"78711","adminName1":"Texas","placeName":"Austin","lat":30.326374},{"adminCode2":"453","adminCode1":"TX","adminName2":"Travis","lng":-97.771258,"distance":"22.97465","countryCode":"US","postalCode":"78720","adminName1":"Texas","placeName":"Austin","lat":30.326374},{"adminCode2":"453","adminCode1":"TX","adminName2":"Travis","lng":-97.771258,"distance":"22.97465","countryCode":"US","postalCode":"78774","adminName1":"Texas","placeName":"Austin","lat":30.326374},{"adminCode2":"453","adminCode1":"TX","adminName2":"Travis","lng":-97.771258,"distance":"22.97465","countryCode":"US","postalCode":"78709","adminName1":"Texas","placeName":"Austin","lat":30.326374},{"adminCode2":"453","adminCode1":"TX","adminName2":"Travis","lng":-97.771258,"distance":"22.97465","countryCode":"US","postalCode":"78769","adminName1":"Texas","placeName":"Austin","lat":30.326374},{"adminCode2":"453","adminCode1":"TX","adminName2":"Travis","lng":-97.771258,"distance":"22.97465","countryCode":"US","postalCode":"78765","adminName1":"Texas","placeName":"Austin","lat":30.326374},{"adminCode2":"453","adminCode1":"TX","adminName2":"Travis","lng":-97.771258,"distance":"22.97465","countryCode":"US","postalCode":"78762","adminName1":"Texas","placeName":"Austin","lat":30.326374},{"adminCode2":"453","adminCode1":"TX","adminName2":"Travis","lng":-97.771258,"distance":"22.97465","countryCode":"US","postalCode":"78718","adminName1":"Texas","placeName":"Austin","lat":30.326374},{"adminCode2":"453","adminCode1":"TX","adminName2":"Travis","lng":-97.771258,"distance":"22.97465","countryCode":"US","postalCode":"78708","adminName1":"Texas","placeName":"Austin","lat":30.326374},{"adminCode2":"453","adminCode1":"TX","adminName2":"Travis","lng":-97.771258,"distance":"22.97465","countryCode":"US","postalCode":"78755","adminName1":"Texas","placeName":"Austin","lat":30.326374},{"adminCode2":"453","adminCode1":"TX","adminName2":"Travis","lng":-97.771258,"distance":"22.97465","countryCode":"US","postalCode":"78761","adminName1":"Texas","placeName":"Austin","lat":30.326374},{"adminCode2":"453","adminCode1":"TX","adminName2":"Travis","lng":-97.771258,"distance":"22.97465","countryCode":"US","postalCode":"78760","adminName1":"Texas","placeName":"Austin","lat":30.326374},{"adminCode2":"453","adminCode1":"TX","adminName2":"Travis","lng":-97.771258,"distance":"22.97465","countryCode":"US","postalCode":"78772","adminName1":"Texas","placeName":"Austin","lat":30.326374},{"adminCode2":"453","adminCode1":"TX","adminName2":"Travis","lng":-97.771258,"distance":"22.97465","countryCode":"US","postalCode":"78778","adminName1":"Texas","placeName":"Austin","lat":30.326374},{"adminCode2":"453","adminCode1":"TX","adminName2":"Travis","lng":-97.771258,"distance":"22.97465","countryCode":"US","postalCode":"78783","adminName1":"Texas","placeName":"Austin","lat":30.326374},{"adminCode2":"453","adminCode1":"TX","adminName2":"Travis","lng":-97.771258,"distance":"22.97465","countryCode":"US","postalCode":"78773","adminName1":"Texas","placeName":"Austin","lat":30.326374},{"adminCode2":"453","adminCode1":"TX","adminName2":"Travis","lng":-97.771258,"distance":"22.97465","countryCode":"US","postalCode":"78779","adminName1":"Texas","placeName":"Austin","lat":30.326374},{"adminCode2":"453","adminCode1":"TX","adminName2":"Travis","lng":-97.771258,"distance":"22.97465","countryCode":"US","postalCode":"78651","adminName1":"Texas","placeName":"Mc Neil","lat":30.326374},{"adminCode2":"491","adminCode1":"TX","adminName2":"Williamson","lng":-97.668028,"distance":"23.47385","countryCode":"US","postalCode":"78664","adminName1":"Texas","placeName":"Round Rock","lat":30.51452},{"adminCode2":"491","adminCode1":"TX","adminName2":"Williamson","lng":-97.668028,"distance":"23.47385","countryCode":"US","postalCode":"78665","adminName1":"Texas","placeName":"Round Rock","lat":30.51452},{"adminCode2":"491","adminCode1":"TX","adminName2":"Williamson","lng":-97.678896,"distance":"23.50548","countryCode":"US","postalCode":"78681","adminName1":"Texas","placeName":"Round Rock","lat":30.5082551},{"adminCode2":"453","adminCode1":"TX","adminName2":"Travis","lng":-97.765788,"distance":"24.82845","countryCode":"US","postalCode":"78704","adminName1":"Texas","placeName":"Austin","lat":30.242831},{"adminCode2":"491","adminCode1":"TX","adminName2":"Williamson","lng":-97.768787,"distance":"25.94191","countryCode":"US","postalCode":"78729","adminName1":"Texas","placeName":"Austin","lat":30.45206},{"adminCode2":"453","adminCode1":"TX","adminName2":"Travis","lng":-97.74723,"distance":"26.62008","countryCode":"US","postalCode":"78744","adminName1":"Texas","placeName":"Austin","lat":30.18764},{"adminCode2":"453","adminCode1":"TX","adminName2":"Travis","lng":-97.796676,"distance":"27.00913","countryCode":"US","postalCode":"78750","adminName1":"Texas","placeName":"Austin","lat":30.422401},{"adminCode2":"021","adminCode1":"TX","adminName2":"Bastrop","lng":-97.497602,"distance":"27.13353","countryCode":"US","postalCode":"78612","adminName1":"Texas","placeName":"Cedar Creek","lat":30.096636},{"adminCode2":"491","adminCode1":"TX","adminName2":"Williamson","lng":-97.747187,"distance":"27.74811","countryCode":"US","postalCode":"78717","adminName1":"Texas","placeName":"Austin","lat":30.505972},{"adminCode2":"453","adminCode1":"TX","adminName2":"Travis","lng":-97.818113,"distance":"27.82304","countryCode":"US","postalCode":"78746","adminName1":"Texas","placeName":"Austin","lat":30.2971},{"adminCode2":"453","adminCode1":"TX","adminName2":"Travis","lng":-97.824062,"distance":"28.10153","countryCode":"US","postalCode":"78730","adminName1":"Texas","placeName":"Austin","lat":30.360745},{"adminCode2":"491","adminCode1":"TX","adminName2":"Williamson","lng":-97.4094438,"distance":"28.35015","countryCode":"US","postalCode":"76574","adminName1":"Texas","placeName":"Taylor","lat":30.5707551},{"adminCode2":"021","adminCode1":"TX","adminName2":"Bastrop","lng":-97.238556,"distance":"28.57814","countryCode":"US","postalCode":"78650","adminName1":"Texas","placeName":"Mc Dade","lat":30.296816},{"adminCode2":"453","adminCode1":"TX","adminName2":"Travis","lng":-97.795599,"distance":"29.26453","countryCode":"US","postalCode":"78745","adminName1":"Texas","placeName":"Austin","lat":30.206298}]}