{"postalCodes":[{"adminCode2":"453","adminCode1":"TX","adminName2":"Travis","lng":-97.722317,"distance":"0","countryCode":"US","postalCode":"78741","adminName1":"Texas","placeName":"Austin","lat":30.231513},{"adminCode2":"453","adminCode1":"TX","adminName2":"Travis","lng":-97.716589,"distance":"3.63376","countryCode":"US","postalCode":"78702","adminName1":"Texas","placeName":"Austin","lat":30.263817},{"adminCode2":"453","adminCode1":"TX","adminName2":"Travis","lng":-97.765788,"distance":"4.36141","countryCode":"US","postalCode":"78704","adminName1":"Texas","placeName":"Austin","lat":30.242831},{"adminCode2":"453","adminCode1":"TX","adminName2":"Travis","lng":-97.7430608,"distance":"4.43549","countryCode":"US","postalCode":"78714","adminName1":"Texas","placeName":"Austin","lat":30.267153},{"adminCode2":"453","adminCode1":"TX","adminName2":"Travis","lng":-97.7430608,"distance":"4.43549","countryCode":"US","postalCode":"78766","adminName1":"Texas","placeName":"Austin","lat":30.267153},{"adminCode2":"453","adminCode1":"TX","adminName2":"Travis","lng":-97.7430608,"distance":"4.43549","countryCode":"US","postalCode":"78767","adminName1":"Texas","placeName":"Austin","lat":30.267153},{"adminCode2":"453","adminCode1":"TX","adminName2":"Travis","lng":-97.7430608,"distance":"4.43549","countryCode":"US","postalCode":"78768","adminName1":"Texas","placeName":"Austin","lat":30.267153},{"adminCode2":"453","adminCode1":"TX","adminName2":"Travis","lng":-97.7430608,"distance":"4.43549","countryCode":"US","postalCode":"78715","adminName1":"Texas","placeName":"Austin","lat":30.267153},{"adminCode2":"453","adminCode1":"TX","adminName2":"Travis","lng":-97.7430608,"distance":"4.43549","countryCode":"US","postalCode":"78713","adminName1":"Texas","placeName":"Austin","lat":30.267153},{"adminCode2":"453","adminCode1":"TX","adminName2":"Travis","lng":-97.7430608,"distance":"4.43549","countryCode":"US","postalCode":"78799","adminName1":"Texas","placeName":"Austin","lat":30.267153},{"adminCode2":"453","adminCode1":"TX","adminName2":"Travis","lng":-97.742559,"distance":"4.83115","countryCode":"US","postalCode":"78701","adminName1":"Texas","placeName":"Austin","lat":30.271289},{"adminCode2":"453","adminCode1":"TX","adminName2":"Travis","lng":-97.670349,"distance":"4.9925","countryCode":"US","postalCode":"78742","adminName1":"Texas","placeName":"Austin","lat":30.231296},{"adminCode2":"453","adminCode1":"TX","adminName2":"Travis","lng":-97.74723,"distance":"5.43393","countryCode":"US","postalCode":"78744","adminName1":"Texas","placeName":"Austin","lat":30.18764},{"adminCode2":"453","adminCode1":"TX","adminName2":"Travis","lng":-97.686798,"distance":"5.66114","countryCode":"US","postalCode":"78721","adminName1":"Texas","placeName":"Austin","lat":30.272144},{"adminCode2":"453","adminCode1":"TX","adminName2":"Travis","lng":-97.735394,"distance":"6.10089","countryCode":"US","postalCode":"78712","adminName1":"Texas","placeName":"Austin","lat":30.285207},{"adminCode2":"453","adminCode1":"TX","adminName2":"Travis","lng":-97.71495,"distance":"6.4647","countryCode":"US","postalCode":"78722","adminName1":"Texas","placeName":"Austin","lat":30.289305},{"adminCode2":"453","adminCode1":"TX","adminName2":"Travis","lng":-97.739627,"distance":"6.67124","countryCode":"US","postalCode":"78705","adminName1":"Texas","placeName":"Austin","lat":30.289619},{"adminCode2":"453","adminCode1":"TX","adminName2":"Travis","lng":-97.795599,"distance":"7.57859","countryCode":"US","postalCode":"78745","adminName1":"Texas","placeName":"Austin","lat":30.206298},{"adminCode2":"453","adminCode1":"TX","adminName2":"Travis","lng":-97.764809,"distance":"7.74082","countryCode":"US","postalCode":"78703","adminName1":"Texas","placeName":"Austin","lat":30.290671},{"adminCode2":"453","adminCode1":"TX","adminName2":"Travis","lng":-97.666701,"distance":"7.81404","countryCode":"US","postalCode":"78719","adminName1":"Texas","placeName":"Austin","lat":30.180243},{"adminCode2":"453","adminCode1":"TX","adminName2":"Travis","lng":-97.724163,"distance":"8.64959","countryCode":"US","postalCode":"78751","adminName1":"Texas","placeName":"Austin","lat":30.309288},{"adminCode2":"453","adminCode1":"TX","adminName2":"Travis","lng":-97.684941,"distance":"9.28371","countryCode":"US","postalCode":"78723","adminName1":"Texas","placeName":"Austin","lat":30.308515},{"adminCode2":"453","adminCode1":"TX","adminName2":"Travis","lng":-97.624301,"distance":"9.80652","countryCode":"US","postalCode":"78725","adminName1":"Texas","placeName":"Austin","lat":30.256186},{"adminCode2":"453","adminCode1":"TX","adminName2":"Travis","lng":-97.739032,"distance":"10.22269","countryCode":"US","postalCode":"78756","adminName1":"Texas","placeName":"Austin","lat":30.322312},{"adminCode2":"453","adminCode1":"TX","adminName2":"Travis","lng":-97.639587,"distance":"10.70085","countryCode":"US","postalCode":"78724","adminName1":"Texas","placeName":"Austin","lat":30.295982},{"adminCode2":"453","adminCode1":"TX","adminName2":"Travis","lng":-97.700394,"distance":"11.32182","countryCode":"US","postalCode":"78752","adminName1":"Texas","placeName":"Austin","lat":30.331562},{"adminCode2":"453","adminCode1":"TX","adminName2":"Travis","lng":-97.822474,"distance":"11.53632","countryCode":"US","postalCode":"78748","adminName1":"Texas","placeName":"Austin","lat":30.174311},{"adminCode2":"453","adminCode1":"TX","adminName2":"Travis","lng":-97.771258,"distance":"11.54708","countryCode":"US","postalCode":"73301","adminName1":"Texas","placeName":"Austin","lat":30.326374},{"adminCode2":"453","adminCode1":"TX","adminName2":"Travis","lng":-97.771258,"distance":"11.54708","countryCode":"US","postalCode":"73344","adminName1":"Texas","placeName":"Austin","lat":30.326374},{"adminCode2":"453","adminCode1":"TX","adminName2":"Travis","lng":-97.771258,"distance":"11.54708","countryCode":"US","postalCode":"78711","adminName1":"Texas","placeName":"Austin","lat":30.326374},{"adminCode2":"453","adminCode1":"TX","adminName2":"Travis","lng":-97.771258,"distance":"11.54708","countryCode":"US","postalCode":"78774","adminName1":"Texas","placeName":"Austin","lat":30.326374},{"adminCode2":"453","adminCode1":"TX","adminName2":"Travis","lng":-97.771258,"distance":"11.54708","countryCode":"US","postalCode":"78720","adminName1":"Texas","placeName":"Austin","lat":30.326374},{"adminCode2":"453","adminCode1":"TX","adminName2":"Travis","lng":-97.771258,"distance":"11.54708","countryCode":"US","postalCode":"78755","adminName1":"Texas","placeName":"Austin","lat":30.326374},{"adminCode2":"453","adminCode1":"TX","adminName2":"Travis","lng":-97.771258,"distance":"11.54708","countryCode":"US","postalCode":"78762","adminName1":"Texas","placeName":"Austin","lat":30.326374},{"adminCode2":"453","adminCode1":"TX","adminName2":"Travis","lng":-97.771258,"distance":"11.54708","countryCode":"US","postalCode":"78765","adminName1":"Texas","placeName":"Austin","lat":30.326374},{"adminCode2":"453","adminCode1":"TX","adminName2":"Travis","lng":-97.771258,"distance":"11.54708","countryCode":"US","postalCode":"78769","adminName1":"Texas","placeName":"Austin","lat":30.326374},{"adminCode2":"453","adminCode1":"TX","adminName2":"Travis","lng":-97.771258,"distance":"11.54708","countryCode":"US","postalCode":"78718","adminName1":"Texas","placeName":"Austin","lat":30.326374},{"adminCode2":"453","adminCode1":"TX","adminName2":"Travis","lng":-97.771258,"distance":"11.54708","countryCode":"US","postalCode":"78761","adminName1":"Texas","placeName":"Austin","lat":30.326374},{"adminCode2":"453","adminCode1":"TX","adminName2":"Travis","lng":-97.771258,"distance":"11.54708","countryCode":"US","postalCode":"78708","adminName1":"Texas","placeName":"Austin","lat":30.326374},{"adminCode2":"453","adminCode1":"TX","adminName2":"Travis","lng":-97.771258,"distance":"11.54708","countryCode":"US","postalCode":"78709","adminName1":"Texas","placeName":"Austin","lat":30.326374},{"adminCode2":"453","adminCode1":"TX","adminName2":"Travis","lng":-97.771258,"distance":"11.54708","countryCode":"US","postalCode":"78760","adminName1":"Texas","placeName":"Austin","lat":30.326374},{"adminCode2":"453","adminCode1":"TX","adminName2":"Travis","lng":-97.771258,"distance":"11.54708","countryCode":"US","postalCode":"78778","adminName1":"Texas","placeName":"Austin","lat":30.326374},{"adminCode2":"453","adminCode1":"TX","adminName2":"Travis","lng":-97.771258,"distance":"11.54708","countryCode":"US","postalCode":"78783","adminName1":"Texas","placeName":"Austin","lat":30.326374},{"adminCode2":"453","adminCode1":"TX","adminName2":"Travis","lng":-97.771258,"distance":"11.54708","countryCode":"US","postalCode":"78773","adminName1":"Texas","placeName":"Austin","lat":30.326374},{"adminCode2":"453","adminCode1":"TX","adminName2":"Travis","lng":-97.771258,"distance":"11.54708","countryCode":"US","postalCode":"78779","adminName1":"Texas","placeName":"Austin","lat":30.326374},{"adminCode2":"453","adminCode1":"TX","adminName2":"Travis","lng":-97.771258,"distance":"11.54708","countryCode":"US","postalCode":"78772","adminName1":"Texas","placeName":"Austin","lat":30.326374},{"adminCode2":"453","adminCode1":"TX","adminName2":"Travis","lng":-97.771258,"distance":"11.54708","countryCode":"US","postalCode":"78651","adminName1":"Texas","placeName":"Mc Neil","lat":30.326374},{"adminCode2":"453","adminCode1":"TX","adminName2":"Travis","lng":-97.841423,"distance":"11.60484","countryCode":"US","postalCode":"78735","adminName1":"Texas","placeName":"Austin","lat":30.248978},{"adminCode2":"453","adminCode1":"TX","adminName2":"Travis","lng":-97.818113,"distance":"11.73961","countryCode":"US","postalCode":"78746","adminName1":"Texas","placeName":"Austin","lat":30.2971},{"adminCode2":"453","adminCode1":"TX","adminName2":"Travis","lng":-97.613443,"distance":"12.23343","countryCode":"US","postalCode":"78617","adminName1":"Texas","placeName":"Del Valle","lat":30.174492},{"adminCode2":"453","adminCode1":"TX","adminName2":"Travis","lng":-97.850755,"distance":"12.44996","countryCode":"US","postalCode":"78749","adminName1":"Texas","placeName":"Austin","lat":30.216641},{"adminCode2":"453","adminCode1":"TX","adminName2":"Travis","lng":-97.731617,"distance":"12.50949","countryCode":"US","postalCode":"78757","adminName1":"Texas","placeName":"Austin","lat":30.343732},{"adminCode2":"453","adminCode1":"TX","adminName2":"Travis","lng":-97.743317,"distance":"12.51546","countryCode":"US","postalCode":"78747","adminName1":"Texas","placeName":"Austin","lat":30.120427},{"adminCode2":"453","adminCode1":"TX","adminName2":"Travis","lng":-97.760887,"distance":"13.37804","countryCode":"US","postalCode":"78731","adminName1":"Texas","placeName":"Austin","lat":30.347129},{"adminCode2":"453","adminCode1":"TX","adminName2":"Travis","lng":-97.667267,"distance":"13.4076","countryCode":"US","postalCode":"78754","adminName1":"Texas","placeName":"Austin","lat":30.342331},{"adminCode2":"453","adminCode1":"TX","adminName2":"Travis","lng":-97.715123,"distance":"13.40947","countryCode":"US","postalCode":"78710","adminName1":"Texas","placeName":"Austin","lat":30.351953},{"adminCode2":"453","adminCode1":"TX","adminName2":"Travis","lng":-97.682658,"distance":"15.30676","countryCode":"US","postalCode":"78753","adminName1":"Texas","placeName":"Austin","lat":30.36485},{"adminCode2":"453","adminCode1":"TX","adminName2":"Travis","lng":-97.85877,"distance":"16.13707","countryCode":"US","postalCode":"78716","adminName1":"Texas","placeName":"Austin","lat":30.316223},{"adminCode2":"453","adminCode1":"TX","adminName2":"Travis","lng":-97.707758,"distance":"16.17387","countryCode":"US","postalCode":"78758","adminName1":"Texas","placeName":"Austin","lat":30.376431},{"adminCode2":"453","adminCode1":"TX","adminName2":"Travis","lng":-97.878433,"distance":"16.39561","countryCode":"US","postalCode":"78739","adminName1":"Texas","placeName":"Austin","lat":30.172026},{"adminCode2":"453","adminCode1":"TX","adminName2":"Travis","lng":-97.839325,"distance":"16.42733","countryCode":"US","postalCode":"78652","adminName1":"Texas","placeName":"Manchaca","lat":30.123827},{"adminCode2":"453","adminCode1":"TX","adminName2":"Travis","lng":-97.824062,"distance":"17.37494","countryCode":"US","postalCode":"78730","adminName1":"Texas","placeName":"Austin","lat":30.360745},{"adminCode2":"453","adminCode1":"TX","adminName2":"Travis","lng":-97.866633,"distance":"17.75552","countryCode":"US","postalCode":"78733","adminName1":"Texas","placeName":"Austin","lat":30.331355},{"adminCode2":"453","adminCode1":"TX","adminName2":"Travis","lng":-97.915968,"distance":"18.65774","countryCode":"US","postalCode":"78736","adminName1":"Texas","placeName":"Austin","lat":30.244433},{"adminCode2":"453","adminCode1":"TX","adminName2":"Travis","lng":-97.752602,"distance":"19.35536","countryCode":"US","postalCode":"78759","adminName1":"Texas","placeName":"Austin","lat":30.403614},{"adminCode2":"453","adminCode1":"TX","adminName2":"Travis","lng":-97.559807,"distance":"19.41388","countryCode":"US","postalCode":"78763","adminName1":"Texas","placeName":"Austin","lat":30.335398},{"adminCode2":"209","adminCode1":"TX","adminName2":"Hays","lng":-97.853422,"distance":"20.00819","countryCode":"US","postalCode":"78610","adminName1":"Texas","placeName":"Buda","lat":30.091758},{"adminCode2":"453","adminCode1":"TX","adminName2":"Travis","lng":-97.942749,"distance":"21.30476","countryCode":"US","postalCode":"78737","adminName1":"Texas","placeName":"Austin","lat":30.210692},{"adminCode2":"453","adminCode1":"TX","adminName2":"Travis","lng":-97.719488,"distance":"21.56237","countryCode":"US","postalCode":"78727","adminName1":"Texas","placeName":"Austin","lat":30.425422},{"adminCode2":"453","adminCode1":"TX","adminName2":"Travis","lng":-97.532295,"distance":"21.79977","countryCode":"US","postalCode":"78653","adminName1":"Texas","placeName":"Manor","lat":30.338817},{"adminCode2":"453","adminCode1":"TX","adminName2":"Travis","lng":-97.796676,"distance":"22.39242","countryCode":"US","postalCode":"78750","adminName1":"Texas","placeName":"Austin","lat":30.422401},{"adminCode2":"453","adminCode1":"TX","adminName2":"Travis","lng":-97.900685,"distance":"23.4213","countryCode":"US","postalCode":"78732","adminName1":"Texas","placeName":"Austin","lat":30.375233},{"adminCode2":"453","adminCode1":"TX","adminName2":"Travis","lng":-97.681123,"distance":"23.70028","countryCode":"US","postalCode":"78728","adminName1":"Texas","placeName":"Austin","lat":30.441679},{"adminCode2":"453","adminCode1":"TX","adminName2":"Travis","lng":-97.832649,"distance":"24.47835","countryCode":"US","postalCode":"78726","adminName1":"Texas","placeName":"Austin","lat":30.43},{"adminCode2":"453","adminCode1":"TX","adminName2":"Travis","lng":-97.659533,"distance":"24.54431","countryCode":"US","postalCode":"78764","adminName1":"Texas","placeName":"Austin","lat":30.445502},{"adminCode2":"491","adminCode1":"TX","adminName2":"Williamson","lng":-97.768787,"distance":"24.92467","countryCode":"US","postalCode":"78729","adminName1":"Texas","placeName":"Austin","lat":30.45206},{"adminCode2":"453","adminCode1":"TX","adminName2":"Travis","lng":-97.629895,"distance":"25.04198","countryCode":"US","postalCode":"78660","adminName1":"Texas","placeName":"Pflugerville","lat":30.442133},{"adminCode2":"453","adminCode1":"TX","adminName2":"Travis","lng":-97.6200043,"distance":"25.11064","countryCode":"US","postalCode":"78691","adminName1":"Texas","placeName":"Pflugerville","lat":30.4393696},{"adminCode2":"453","adminCode1":"TX","adminName2":"Travis","lng":-97.942721,"distance":"26.19858","countryCode":"US","postalCode":"78734","adminName1":"Texas","placeName":"Austin","lat":30.370457},{"adminCode2":"021","adminCode1":"TX","adminName2":"Bastrop","lng":-97.497602,"distance":"26.29791","countryCode":"US","postalCode":"78612","adminName1":"Texas","placeName":"Cedar Creek","lat":30.096636},{"adminCode2":"453","adminCode1":"TX","adminName2":"Travis","lng":-97.982367,"distance":"27.43333","countryCode":"US","postalCode":"78738","adminName1":"Texas","placeName":"Austin","lat":30.333708},{"adminCode2":"209","adminCode1":"TX","adminName2":"Hays","lng":-97.83354,"distance":"28.22576","countryCode":"US","postalCode":"78640","adminName1":"Texas","placeName":"Kyle","lat":29.996599}]}