{"postalCodes":[{"adminCode2":"453","adminCode1":"TX","adminName2":"Travis","lng":-97.771258,"distance":"0","countryCode":"US","postalCode":"73301","adminName1":"Texas","placeName":"Austin","lat":30.326374},{"adminCode2":"453","adminCode1":"TX","adminName2":"Travis","lng":-97.771258,"distance":"0","countryCode":"US","postalCode":"73344","adminName1":"Texas","placeName":"Austin","lat":30.326374},{"adminCode2":"453","adminCode1":"TX","adminName2":"Travis","lng":-97.771258,"distance":"0","countryCode":"US","postalCode":"78711","adminName1":"Texas","placeName":"Austin","lat":30.326374},{"adminCode2":"453","adminCode1":"TX","adminName2":"Travis","lng":-97.771258,"distance":"0","countryCode":"US","postalCode":"78774","adminName1":"Texas","placeName":"Austin","lat":30.326374},{"adminCode2":"453","adminCode1":"TX","adminName2":"Travis","lng":-97.771258,"distance":"0","countryCode":"US","postalCode":"78720","adminName1":"Texas","placeName":"Austin","lat":30.326374},{"adminCode2":"453","adminCode1":"TX","adminName2":"Travis","lng":-97.771258,"distance":"0","countryCode":"US","postalCode":"78755","adminName1":"Texas","placeName":"Austin","lat":30.326374},{"adminCode2":"453","adminCode1":"TX","adminName2":"Travis","lng":-97.771258,"distance":"0","countryCode":"US","postalCode":"78709","adminName1":"Texas","placeName":"Austin","lat":30.326374},{"adminCode2":"453","adminCode1":"TX","adminName2":"Travis","lng":-97.771258,"distance":"0","countryCode":"US","postalCode":"78708","adminName1":"Texas","placeName":"Austin","lat":30.326374},{"adminCode2":"453","adminCode1":"TX","adminName2":"Travis","lng":-97.771258,"distance":"0","countryCode":"US","postalCode":"78765","adminName1":"Texas","placeName":"Austin","lat":30.326374},{"adminCode2":"453","adminCode1":"TX","adminName2":"Travis","lng":-97.771258,"distance":"0","countryCode":"US","postalCode":"78760","adminName1":"Texas","placeName":"Austin","lat":30.326374},{"adminCode2":"453","adminCode1":"TX","adminName2":"Travis","lng":-97.771258,"distance":"0","countryCode":"US","postalCode":"78762","adminName1":"Texas","placeName":"Austin","lat":30.326374},{"adminCode2":"453","adminCode1":"TX","adminName2":"Travis","lng":-97.771258,"distance":"0","countryCode":"US","postalCode":"78718","adminName1":"Texas","placeName":"Austin","lat":30.326374},{"adminCode2":"453","adminCode1":"TX","adminName2":"Travis","lng":-97.771258,"distance":"0","countryCode":"US","postalCode":"78761","adminName1":"Texas","placeName":"Austin","lat":30.326374},{"adminCode2":"453","adminCode1":"TX","adminName2":"Travis","lng":-97.771258,"distance":"0","countryCode":"US","postalCode":"78769","adminName1":"Texas","placeName":"Austin","lat":30.326374},{"adminCode2":"453","adminCode1":"TX","adminName2":"Travis","lng":-97.771258,"distance":"0","countryCode":"US","postalCode":"78778","adminName1":"Texas","placeName":"Austin","lat":30.326374},{"adminCode2":"453","adminCode1":"TX","adminName2":"Travis","lng":-97.771258,"distance":"0","countryCode":"US","postalCode":"78779","adminName1":"Texas","placeName":"Austin","lat":30.326374},{"adminCode2":"453","adminCode1":"TX","adminName2":"Travis","lng":-97.771258,"distance":"0","countryCode":"US","postalCode":"78773","adminName1":"Texas","placeName":"Austin","lat":30.326374},{"adminCode2":"453","adminCode1":"TX","adminName2":"Travis","lng":-97.771258,"distance":"0","countryCode":"US","postalCode":"78783","adminName1":"Texas","placeName":"Austin","lat":30.326374},{"adminCode2":"453","adminCode1":"TX","adminName2":"Travis","lng":-97.771258,"distance":"0","countryCode":"US","postalCode":"78772","adminName1":"Texas","placeName":"Austin","lat":30.326374},{"adminCode2":"453","adminCode1":"TX","adminName2":"Travis","lng":-97.771258,"distance":"0","countryCode":"US","postalCode":"78651","adminName1":"Texas","placeName":"Mc Neil","lat":30.326374},{"adminCode2":"453","adminCode1":"TX","adminName2":"Travis","lng":-97.771258,"distance":"0","countryCode":"US","postalCode":"78731","adminName1":"Texas","placeName":"Austin","lat":30.326374},{"adminCode2":"453","adminCode1":"TX","adminName2":"Travis","lng":-97.739032,"distance":"3.12575","countryCode":"US","postalCode":"78756","adminName1":"Texas","placeName":"Austin","lat":30.322312},{"adminCode2":"453","adminCode1":"TX","adminName2":"Travis","lng":-97.764809,"distance":"4.01778","countryCode":"US","postalCode":"78703","adminName1":"Texas","placeName":"Austin","lat":30.290671},{"adminCode2":"453","adminCode1":"TX","adminName2":"Travis","lng":-97.731617,"distance":"4.26579","countryCode":"US","postalCode":"78757","adminName1":"Texas","placeName":"Austin","lat":30.343732},{"adminCode2":"453","adminCode1":"TX","adminName2":"Travis","lng":-97.724163,"distance":"4.90332","countryCode":"US","postalCode":"78751","adminName1":"Texas","placeName":"Austin","lat":30.309288},{"adminCode2":"453","adminCode1":"TX","adminName2":"Travis","lng":-97.739627,"distance":"5.09128","countryCode":"US","postalCode":"78705","adminName1":"Texas","placeName":"Austin","lat":30.289619},{"adminCode2":"453","adminCode1":"TX","adminName2":"Travis","lng":-97.818113,"distance":"5.55184","countryCode":"US","postalCode":"78746","adminName1":"Texas","placeName":"Austin","lat":30.2971},{"adminCode2":"453","adminCode1":"TX","adminName2":"Travis","lng":-97.735394,"distance":"5.72754","countryCode":"US","postalCode":"78712","adminName1":"Texas","placeName":"Austin","lat":30.285207},{"adminCode2":"453","adminCode1":"TX","adminName2":"Travis","lng":-97.715123,"distance":"6.09156","countryCode":"US","postalCode":"78710","adminName1":"Texas","placeName":"Austin","lat":30.351953},{"adminCode2":"453","adminCode1":"TX","adminName2":"Travis","lng":-97.824062,"distance":"6.34661","countryCode":"US","postalCode":"78730","adminName1":"Texas","placeName":"Austin","lat":30.360745},{"adminCode2":"453","adminCode1":"TX","adminName2":"Travis","lng":-97.742559,"distance":"6.71603","countryCode":"US","postalCode":"78701","adminName1":"Texas","placeName":"Austin","lat":30.271289},{"adminCode2":"453","adminCode1":"TX","adminName2":"Travis","lng":-97.71495,"distance":"6.79736","countryCode":"US","postalCode":"78722","adminName1":"Texas","placeName":"Austin","lat":30.289305},{"adminCode2":"453","adminCode1":"TX","adminName2":"Travis","lng":-97.700394,"distance":"6.82539","countryCode":"US","postalCode":"78752","adminName1":"Texas","placeName":"Austin","lat":30.331562},{"adminCode2":"453","adminCode1":"TX","adminName2":"Travis","lng":-97.7430608,"distance":"7.11949","countryCode":"US","postalCode":"78713","adminName1":"Texas","placeName":"Austin","lat":30.267153},{"adminCode2":"453","adminCode1":"TX","adminName2":"Travis","lng":-97.7430608,"distance":"7.11949","countryCode":"US","postalCode":"78714","adminName1":"Texas","placeName":"Austin","lat":30.267153},{"adminCode2":"453","adminCode1":"TX","adminName2":"Travis","lng":-97.7430608,"distance":"7.11949","countryCode":"US","postalCode":"78767","adminName1":"Texas","placeName":"Austin","lat":30.267153},{"adminCode2":"453","adminCode1":"TX","adminName2":"Travis","lng":-97.7430608,"distance":"7.11949","countryCode":"US","postalCode":"78768","adminName1":"Texas","placeName":"Austin","lat":30.267153},{"adminCode2":"453","adminCode1":"TX","adminName2":"Travis","lng":-97.7430608,"distance":"7.11949","countryCode":"US","postalCode":"78766","adminName1":"Texas","placeName":"Austin","lat":30.267153},{"adminCode2":"453","adminCode1":"TX","adminName2":"Travis","lng":-97.7430608,"distance":"7.11949","countryCode":"US","postalCode":"78715","adminName1":"Texas","placeName":"Austin","lat":30.267153},{"adminCode2":"453","adminCode1":"TX","adminName2":"Travis","lng":-97.7430608,"distance":"7.11949","countryCode":"US","postalCode":"78799","adminName1":"Texas","placeName":"Austin","lat":30.267153},{"adminCode2":"453","adminCode1":"TX","adminName2":"Travis","lng":-97.707758,"distance":"8.25233","countryCode":"US","postalCode":"78758","adminName1":"Texas","placeName":"Austin","lat":30.376431},{"adminCode2":"453","adminCode1":"TX","adminName2":"Travis","lng":-97.85877,"distance":"8.47487","countryCode":"US","postalCode":"78716","adminName1":"Texas","placeName":"Austin","lat":30.316223},{"adminCode2":"453","adminCode1":"TX","adminName2":"Travis","lng":-97.684941,"distance":"8.51965","countryCode":"US","postalCode":"78723","adminName1":"Texas","placeName":"Austin","lat":30.308515},{"adminCode2":"453","adminCode1":"TX","adminName2":"Travis","lng":-97.716589,"distance":"8.7137","countryCode":"US","postalCode":"78702","adminName1":"Texas","placeName":"Austin","lat":30.263817},{"adminCode2":"453","adminCode1":"TX","adminName2":"Travis","lng":-97.752602,"distance":"8.7728","countryCode":"US","postalCode":"78759","adminName1":"Texas","placeName":"Austin","lat":30.403614},{"adminCode2":"453","adminCode1":"TX","adminName2":"Travis","lng":-97.866633,"distance":"9.1701","countryCode":"US","postalCode":"78733","adminName1":"Texas","placeName":"Austin","lat":30.331355},{"adminCode2":"453","adminCode1":"TX","adminName2":"Travis","lng":-97.765788,"distance":"9.30395","countryCode":"US","postalCode":"78704","adminName1":"Texas","placeName":"Austin","lat":30.242831},{"adminCode2":"453","adminCode1":"TX","adminName2":"Travis","lng":-97.682658,"distance":"9.51741","countryCode":"US","postalCode":"78753","adminName1":"Texas","placeName":"Austin","lat":30.36485},{"adminCode2":"453","adminCode1":"TX","adminName2":"Travis","lng":-97.686798,"distance":"10.10459","countryCode":"US","postalCode":"78721","adminName1":"Texas","placeName":"Austin","lat":30.272144},{"adminCode2":"453","adminCode1":"TX","adminName2":"Travis","lng":-97.667267,"distance":"10.13619","countryCode":"US","postalCode":"78754","adminName1":"Texas","placeName":"Austin","lat":30.342331},{"adminCode2":"453","adminCode1":"TX","adminName2":"Travis","lng":-97.841423,"distance":"10.92888","countryCode":"US","postalCode":"78735","adminName1":"Texas","placeName":"Austin","lat":30.248978},{"adminCode2":"453","adminCode1":"TX","adminName2":"Travis","lng":-97.796676,"distance":"10.95207","countryCode":"US","postalCode":"78750","adminName1":"Texas","placeName":"Austin","lat":30.422401},{"adminCode2":"453","adminCode1":"TX","adminName2":"Travis","lng":-97.722317,"distance":"11.54708","countryCode":"US","postalCode":"78741","adminName1":"Texas","placeName":"Austin","lat":30.231513},{"adminCode2":"453","adminCode1":"TX","adminName2":"Travis","lng":-97.719488,"distance":"12.081","countryCode":"US","postalCode":"78727","adminName1":"Texas","placeName":"Austin","lat":30.425422},{"adminCode2":"453","adminCode1":"TX","adminName2":"Travis","lng":-97.832649,"distance":"12.93979","countryCode":"US","postalCode":"78726","adminName1":"Texas","placeName":"Austin","lat":30.43},{"adminCode2":"453","adminCode1":"TX","adminName2":"Travis","lng":-97.639587,"distance":"13.08301","countryCode":"US","postalCode":"78724","adminName1":"Texas","placeName":"Austin","lat":30.295982},{"adminCode2":"453","adminCode1":"TX","adminName2":"Travis","lng":-97.795599,"distance":"13.55429","countryCode":"US","postalCode":"78745","adminName1":"Texas","placeName":"Austin","lat":30.206298},{"adminCode2":"453","adminCode1":"TX","adminName2":"Travis","lng":-97.900685,"distance":"13.55491","countryCode":"US","postalCode":"78732","adminName1":"Texas","placeName":"Austin","lat":30.375233},{"adminCode2":"491","adminCode1":"TX","adminName2":"Williamson","lng":-97.768787,"distance":"13.97698","countryCode":"US","postalCode":"78729","adminName1":"Texas","placeName":"Austin","lat":30.45206},{"adminCode2":"453","adminCode1":"TX","adminName2":"Travis","lng":-97.670349,"distance":"14.34033","countryCode":"US","postalCode":"78742","adminName1":"Texas","placeName":"Austin","lat":30.231296},{"adminCode2":"453","adminCode1":"TX","adminName2":"Travis","lng":-97.850755,"distance":"14.39257","countryCode":"US","postalCode":"78749","adminName1":"Texas","placeName":"Austin","lat":30.216641},{"adminCode2":"453","adminCode1":"TX","adminName2":"Travis","lng":-97.681123,"distance":"15.4634","countryCode":"US","postalCode":"78728","adminName1":"Texas","placeName":"Austin","lat":30.441679},{"adminCode2":"453","adminCode1":"TX","adminName2":"Travis","lng":-97.74723,"distance":"15.59744","countryCode":"US","postalCode":"78744","adminName1":"Texas","placeName":"Austin","lat":30.18764},{"adminCode2":"453","adminCode1":"TX","adminName2":"Travis","lng":-97.624301,"distance":"16.12374","countryCode":"US","postalCode":"78725","adminName1":"Texas","placeName":"Austin","lat":30.256186},{"adminCode2":"453","adminCode1":"TX","adminName2":"Travis","lng":-97.915968,"distance":"16.61511","countryCode":"US","postalCode":"78736","adminName1":"Texas","placeName":"Austin","lat":30.244433},{"adminCode2":"453","adminCode1":"TX","adminName2":"Travis","lng":-97.659533,"distance":"17.03787","countryCode":"US","postalCode":"78764","adminName1":"Texas","placeName":"Austin","lat":30.445502},{"adminCode2":"453","adminCode1":"TX","adminName2":"Travis","lng":-97.942721,"distance":"17.16704","countryCode":"US","postalCode":"78734","adminName1":"Texas","placeName":"Austin","lat":30.370457},{"adminCode2":"453","adminCode1":"TX","adminName2":"Travis","lng":-97.822474,"distance":"17.6089","countryCode":"US","postalCode":"78748","adminName1":"Texas","placeName":"Austin","lat":30.174311},{"adminCode2":"453","adminCode1":"TX","adminName2":"Travis","lng":-97.629895,"distance":"18.69548","countryCode":"US","postalCode":"78660","adminName1":"Texas","placeName":"Pflugerville","lat":30.442133},{"adminCode2":"453","adminCode1":"TX","adminName2":"Travis","lng":-97.666701,"distance":"19.10113","countryCode":"US","postalCode":"78719","adminName1":"Texas","placeName":"Austin","lat":30.180243},{"adminCode2":"453","adminCode1":"TX","adminName2":"Travis","lng":-97.6200043,"distance":"19.19216","countryCode":"US","postalCode":"78691","adminName1":"Texas","placeName":"Pflugerville","lat":30.4393696},{"adminCode2":"453","adminCode1":"TX","adminName2":"Travis","lng":-97.878433,"distance":"20.01251","countryCode":"US","postalCode":"78739","adminName1":"Texas","placeName":"Austin","lat":30.172026},{"adminCode2":"491","adminCode1":"TX","adminName2":"Williamson","lng":-97.747187,"distance":"20.10237","countryCode":"US","postalCode":"78717","adminName1":"Texas","placeName":"Austin","lat":30.505972},{"adminCode2":"453","adminCode1":"TX","adminName2":"Travis","lng":-97.982367,"distance":"20.27678","countryCode":"US","postalCode":"78738","adminName1":"Texas","placeName":"Austin","lat":30.333708},{"adminCode2":"453","adminCode1":"TX","adminName2":"Travis","lng":-97.559807,"distance":"20.31781","countryCode":"US","postalCode":"78763","adminName1":"Texas","placeName":"Austin","lat":30.335398},{"adminCode2":"491","adminCode1":"TX","adminName2":"Williamson","lng":-97.8202888,"distance":"20.43163","countryCode":"US","postalCode":"78613","adminName1":"Texas","placeName":"Cedar Park","lat":30.505198},{"adminCode2":"491","adminCode1":"TX","adminName2":"Williamson","lng":-97.8202888,"distance":"20.43163","countryCode":"US","postalCode":"78630","adminName1":"Texas","placeName":"Cedar Park","lat":30.505198},{"adminCode2":"453","adminCode1":"TX","adminName2":"Travis","lng":-97.942749,"distance":"20.89639","countryCode":"US","postalCode":"78737","adminName1":"Texas","placeName":"Austin","lat":30.210692},{"adminCode2":"491","adminCode1":"TX","adminName2":"Williamson","lng":-97.678896,"distance":"22.07743","countryCode":"US","postalCode":"78681","adminName1":"Texas","placeName":"Round Rock","lat":30.5082551},{"adminCode2":"453","adminCode1":"TX","adminName2":"Travis","lng":-97.613443,"distance":"22.6927","countryCode":"US","postalCode":"78617","adminName1":"Texas","placeName":"Del Valle","lat":30.174492},{"adminCode2":"453","adminCode1":"TX","adminName2":"Travis","lng":-97.532295,"distance":"22.97465","countryCode":"US","postalCode":"78653","adminName1":"Texas","placeName":"Manor","lat":30.338817},{"adminCode2":"453","adminCode1":"TX","adminName2":"Travis","lng":-97.743317,"distance":"23.05597","countryCode":"US","postalCode":"78747","adminName1":"Texas","placeName":"Austin","lat":30.120427},{"adminCode2":"491","adminCode1":"TX","adminName2":"Williamson","lng":-97.668028,"distance":"23.14326","countryCode":"US","postalCode":"78664","adminName1":"Texas","placeName":"Round Rock","lat":30.51452},{"adminCode2":"491","adminCode1":"TX","adminName2":"Williamson","lng":-97.668028,"distance":"23.14326","countryCode":"US","postalCode":"78665","adminName1":"Texas","placeName":"Round Rock","lat":30.51452},{"adminCode2":"453","adminCode1":"TX","adminName2":"Travis","lng":-97.966945,"distance":"23.19958","countryCode":"US","postalCode":"78645","adminName1":"Texas","placeName":"Leander","lat":30.44901},{"adminCode2":"453","adminCode1":"TX","adminName2":"Travis","lng":-97.839325,"distance":"23.45133","countryCode":"US","postalCode":"78652","adminName1":"Texas","placeName":"Manchaca","lat":30.123827},{"adminCode2":"209","adminCode1":"TX","adminName2":"Hays","lng":-97.853422,"distance":"27.25539","countryCode":"US","postalCode":"78610","adminName1":"Texas","placeName":"Buda","lat":30.091758},{"adminCode2":"453","adminCode1":"TX","adminName2":"Travis","lng":-98.05392,"distance":"28.02562","countryCode":"US","postalCode":"78669","adminName1":"Texas","placeName":"Spicewood","lat":30.389945},{"adminCode2":"491","adminCode1":"TX","adminName2":"Williamson","lng":-97.8530686,"distance":"29.14257","countryCode":"US","postalCode":"78646","adminName1":"Texas","placeName":"Leander","lat":30.5788055},{"adminCode2":"491","adminCode1":"TX","adminName2":"Williamson","lng":-97.567203,"distance":"29.56478","countryCode":"US","postalCode":"78634","adminName1":"Texas","placeName":"Hutto","lat":30.525725},{"adminCode2":"491","adminCode1":"TX","adminName2":"Williamson","lng":-97.857453,"distance":"29.75672","countryCode":"US","postalCode":"78641","adminName1":"Texas","placeName":"Leander","lat":30.583474}]}