{"postalCodes":[{"adminCode2":"453","adminCode1":"TX","adminName2":"Travis","lng":-97.659533,"distance":"0","countryCode":"US","postalCode":"78764","adminName1":"Texas","placeName":"Austin","lat":30.445502},{"adminCode2":"453","adminCode1":"TX","adminName2":"Travis","lng":-97.659533,"distance":"0","countryCode":"US","postalCode":"78660","adminName1":"Texas","placeName":"Pflugerville","lat":30.445502},{"adminCode2":"453","adminCode1":"TX","adminName2":"Travis","lng":-97.681123,"distance":"2.11281","countryCode":"US","postalCode":"78728","adminName1":"Texas","placeName":"Austin","lat":30.441679},{"adminCode2":"453","adminCode1":"TX","adminName2":"Travis","lng":-97.6200043,"distance":"3.85011","countryCode":"US","postalCode":"78691","adminName1":"Texas","placeName":"Pflugerville","lat":30.4393696},{"adminCode2":"453","adminCode1":"TX","adminName2":"Travis","lng":-97.719488,"distance":"6.16616","countryCode":"US","postalCode":"78727","adminName1":"Texas","placeName":"Austin","lat":30.425422},{"adminCode2":"491","adminCode1":"TX","adminName2":"Williamson","lng":-97.678896,"distance":"7.21999","countryCode":"US","postalCode":"78681","adminName1":"Texas","placeName":"Round Rock","lat":30.5082551},{"adminCode2":"491","adminCode1":"TX","adminName2":"Williamson","lng":-97.668028,"distance":"7.71713","countryCode":"US","postalCode":"78664","adminName1":"Texas","placeName":"Round Rock","lat":30.51452},{"adminCode2":"491","adminCode1":"TX","adminName2":"Williamson","lng":-97.668028,"distance":"7.71713","countryCode":"US","postalCode":"78665","adminName1":"Texas","placeName":"Round Rock","lat":30.51452},{"adminCode2":"453","adminCode1":"TX","adminName2":"Travis","lng":-97.707758,"distance":"8.96476","countryCode":"US","postalCode":"78758","adminName1":"Texas","placeName":"Austin","lat":30.376431},{"adminCode2":"453","adminCode1":"TX","adminName2":"Travis","lng":-97.682658,"distance":"9.23779","countryCode":"US","postalCode":"78753","adminName1":"Texas","placeName":"Austin","lat":30.36485},{"adminCode2":"453","adminCode1":"TX","adminName2":"Travis","lng":-97.752602,"distance":"10.06567","countryCode":"US","postalCode":"78759","adminName1":"Texas","placeName":"Austin","lat":30.403614},{"adminCode2":"491","adminCode1":"TX","adminName2":"Williamson","lng":-97.768787,"distance":"10.49785","countryCode":"US","postalCode":"78729","adminName1":"Texas","placeName":"Austin","lat":30.45206},{"adminCode2":"491","adminCode1":"TX","adminName2":"Williamson","lng":-97.747187,"distance":"10.75929","countryCode":"US","postalCode":"78717","adminName1":"Texas","placeName":"Austin","lat":30.505972},{"adminCode2":"453","adminCode1":"TX","adminName2":"Travis","lng":-97.667267,"distance":"11.4955","countryCode":"US","postalCode":"78754","adminName1":"Texas","placeName":"Austin","lat":30.342331},{"adminCode2":"453","adminCode1":"TX","adminName2":"Travis","lng":-97.715123,"distance":"11.68835","countryCode":"US","postalCode":"78710","adminName1":"Texas","placeName":"Austin","lat":30.351953},{"adminCode2":"491","adminCode1":"TX","adminName2":"Williamson","lng":-97.567203,"distance":"12.56318","countryCode":"US","postalCode":"78634","adminName1":"Texas","placeName":"Hutto","lat":30.525725},{"adminCode2":"453","adminCode1":"TX","adminName2":"Travis","lng":-97.731617,"distance":"13.26054","countryCode":"US","postalCode":"78757","adminName1":"Texas","placeName":"Austin","lat":30.343732},{"adminCode2":"453","adminCode1":"TX","adminName2":"Travis","lng":-97.700394,"distance":"13.26128","countryCode":"US","postalCode":"78752","adminName1":"Texas","placeName":"Austin","lat":30.331562},{"adminCode2":"453","adminCode1":"TX","adminName2":"Travis","lng":-97.796676,"distance":"13.39634","countryCode":"US","postalCode":"78750","adminName1":"Texas","placeName":"Austin","lat":30.422401},{"adminCode2":"453","adminCode1":"TX","adminName2":"Travis","lng":-97.760887,"distance":"14.63313","countryCode":"US","postalCode":"78731","adminName1":"Texas","placeName":"Austin","lat":30.347129},{"adminCode2":"453","adminCode1":"TX","adminName2":"Travis","lng":-97.684941,"distance":"15.42529","countryCode":"US","postalCode":"78723","adminName1":"Texas","placeName":"Austin","lat":30.308515},{"adminCode2":"453","adminCode1":"TX","adminName2":"Travis","lng":-97.559807,"distance":"15.5359","countryCode":"US","postalCode":"78763","adminName1":"Texas","placeName":"Austin","lat":30.335398},{"adminCode2":"453","adminCode1":"TX","adminName2":"Travis","lng":-97.739032,"distance":"15.67695","countryCode":"US","postalCode":"78756","adminName1":"Texas","placeName":"Austin","lat":30.322312},{"adminCode2":"453","adminCode1":"TX","adminName2":"Travis","lng":-97.724163,"distance":"16.36532","countryCode":"US","postalCode":"78751","adminName1":"Texas","placeName":"Austin","lat":30.309288},{"adminCode2":"453","adminCode1":"TX","adminName2":"Travis","lng":-97.832649,"distance":"16.68511","countryCode":"US","postalCode":"78726","adminName1":"Texas","placeName":"Austin","lat":30.43},{"adminCode2":"453","adminCode1":"TX","adminName2":"Travis","lng":-97.639587,"distance":"16.73482","countryCode":"US","postalCode":"78724","adminName1":"Texas","placeName":"Austin","lat":30.295982},{"adminCode2":"491","adminCode1":"TX","adminName2":"Williamson","lng":-97.8202888,"distance":"16.77411","countryCode":"US","postalCode":"78613","adminName1":"Texas","placeName":"Cedar Park","lat":30.505198},{"adminCode2":"491","adminCode1":"TX","adminName2":"Williamson","lng":-97.8202888,"distance":"16.77411","countryCode":"US","postalCode":"78630","adminName1":"Texas","placeName":"Cedar Park","lat":30.505198},{"adminCode2":"453","adminCode1":"TX","adminName2":"Travis","lng":-97.532295,"distance":"17.01872","countryCode":"US","postalCode":"78653","adminName1":"Texas","placeName":"Manor","lat":30.338817},{"adminCode2":"453","adminCode1":"TX","adminName2":"Travis","lng":-97.771258,"distance":"17.03787","countryCode":"US","postalCode":"73301","adminName1":"Texas","placeName":"Austin","lat":30.326374},{"adminCode2":"453","adminCode1":"TX","adminName2":"Travis","lng":-97.771258,"distance":"17.03787","countryCode":"US","postalCode":"73344","adminName1":"Texas","placeName":"Austin","lat":30.326374},{"adminCode2":"453","adminCode1":"TX","adminName2":"Travis","lng":-97.771258,"distance":"17.03787","countryCode":"US","postalCode":"78711","adminName1":"Texas","placeName":"Austin","lat":30.326374},{"adminCode2":"453","adminCode1":"TX","adminName2":"Travis","lng":-97.771258,"distance":"17.03787","countryCode":"US","postalCode":"78774","adminName1":"Texas","placeName":"Austin","lat":30.326374},{"adminCode2":"453","adminCode1":"TX","adminName2":"Travis","lng":-97.771258,"distance":"17.03787","countryCode":"US","postalCode":"78720","adminName1":"Texas","placeName":"Austin","lat":30.326374},{"adminCode2":"453","adminCode1":"TX","adminName2":"Travis","lng":-97.771258,"distance":"17.03787","countryCode":"US","postalCode":"78755","adminName1":"Texas","placeName":"Austin","lat":30.326374},{"adminCode2":"453","adminCode1":"TX","adminName2":"Travis","lng":-97.771258,"distance":"17.03787","countryCode":"US","postalCode":"78709","adminName1":"Texas","placeName":"Austin","lat":30.326374},{"adminCode2":"453","adminCode1":"TX","adminName2":"Travis","lng":-97.771258,"distance":"17.03787","countryCode":"US","postalCode":"78761","adminName1":"Texas","placeName":"Austin","lat":30.326374},{"adminCode2":"453","adminCode1":"TX","adminName2":"Travis","lng":-97.771258,"distance":"17.03787","countryCode":"US","postalCode":"78708","adminName1":"Texas","placeName":"Austin","lat":30.326374},{"adminCode2":"453","adminCode1":"TX","adminName2":"Travis","lng":-97.771258,"distance":"17.03787","countryCode":"US","postalCode":"78765","adminName1":"Texas","placeName":"Austin","lat":30.326374},{"adminCode2":"453","adminCode1":"TX","adminName2":"Travis","lng":-97.771258,"distance":"17.03787","countryCode":"US","postalCode":"78762","adminName1":"Texas","placeName":"Austin","lat":30.326374},{"adminCode2":"453","adminCode1":"TX","adminName2":"Travis","lng":-97.771258,"distance":"17.03787","countryCode":"US","postalCode":"78718","adminName1":"Texas","placeName":"Austin","lat":30.326374},{"adminCode2":"453","adminCode1":"TX","adminName2":"Travis","lng":-97.771258,"distance":"17.03787","countryCode":"US","postalCode":"78760","adminName1":"Texas","placeName":"Austin","lat":30.326374},{"adminCode2":"453","adminCode1":"TX","adminName2":"Travis","lng":-97.771258,"distance":"17.03787","countryCode":"US","postalCode":"78769","adminName1":"Texas","placeName":"Austin","lat":30.326374},{"adminCode2":"453","adminCode1":"TX","adminName2":"Travis","lng":-97.771258,"distance":"17.03787","countryCode":"US","postalCode":"78772","adminName1":"Texas","placeName":"Austin","lat":30.326374},{"adminCode2":"453","adminCode1":"TX","adminName2":"Travis","lng":-97.771258,"distance":"17.03787","countryCode":"US","postalCode":"78778","adminName1":"Texas","placeName":"Austin","lat":30.326374},{"adminCode2":"453","adminCode1":"TX","adminName2":"Travis","lng":-97.771258,"distance":"17.03787","countryCode":"US","postalCode":"78783","adminName1":"Texas","placeName":"Austin","lat":30.326374},{"adminCode2":"453","adminCode1":"TX","adminName2":"Travis","lng":-97.771258,"distance":"17.03787","countryCode":"US","postalCode":"78779","adminName1":"Texas","placeName":"Austin","lat":30.326374},{"adminCode2":"453","adminCode1":"TX","adminName2":"Travis","lng":-97.771258,"distance":"17.03787","countryCode":"US","postalCode":"78773","adminName1":"Texas","placeName":"Austin","lat":30.326374},{"adminCode2":"453","adminCode1":"TX","adminName2":"Travis","lng":-97.771258,"distance":"17.03787","countryCode":"US","postalCode":"78651","adminName1":"Texas","placeName":"Mc Neil","lat":30.326374},{"adminCode2":"453","adminCode1":"TX","adminName2":"Travis","lng":-97.71495,"distance":"18.16297","countryCode":"US","postalCode":"78722","adminName1":"Texas","placeName":"Austin","lat":30.289305},{"adminCode2":"453","adminCode1":"TX","adminName2":"Travis","lng":-97.824062,"distance":"18.37842","countryCode":"US","postalCode":"78730","adminName1":"Texas","placeName":"Austin","lat":30.360745},{"adminCode2":"453","adminCode1":"TX","adminName2":"Travis","lng":-97.739627,"distance":"18.95938","countryCode":"US","postalCode":"78705","adminName1":"Texas","placeName":"Austin","lat":30.289619},{"adminCode2":"453","adminCode1":"TX","adminName2":"Travis","lng":-97.735394,"distance":"19.25178","countryCode":"US","postalCode":"78712","adminName1":"Texas","placeName":"Austin","lat":30.285207},{"adminCode2":"453","adminCode1":"TX","adminName2":"Travis","lng":-97.686798,"distance":"19.45229","countryCode":"US","postalCode":"78721","adminName1":"Texas","placeName":"Austin","lat":30.272144},{"adminCode2":"453","adminCode1":"TX","adminName2":"Travis","lng":-97.764809,"distance":"19.95939","countryCode":"US","postalCode":"78703","adminName1":"Texas","placeName":"Austin","lat":30.290671},{"adminCode2":"491","adminCode1":"TX","adminName2":"Williamson","lng":-97.670704,"distance":"20.87947","countryCode":"US","postalCode":"78626","adminName1":"Texas","placeName":"Georgetown","lat":30.633038},{"adminCode2":"491","adminCode1":"TX","adminName2":"Williamson","lng":-97.6772311,"distance":"20.88271","countryCode":"US","postalCode":"78627","adminName1":"Texas","placeName":"Georgetown","lat":30.6326942},{"adminCode2":"453","adminCode1":"TX","adminName2":"Travis","lng":-97.716589,"distance":"20.93008","countryCode":"US","postalCode":"78702","adminName1":"Texas","placeName":"Austin","lat":30.263817},{"adminCode2":"453","adminCode1":"TX","adminName2":"Travis","lng":-97.742559,"distance":"20.94461","countryCode":"US","postalCode":"78701","adminName1":"Texas","placeName":"Austin","lat":30.271289},{"adminCode2":"453","adminCode1":"TX","adminName2":"Travis","lng":-97.624301,"distance":"21.31969","countryCode":"US","postalCode":"78725","adminName1":"Texas","placeName":"Austin","lat":30.256186},{"adminCode2":"453","adminCode1":"TX","adminName2":"Travis","lng":-97.7430608,"distance":"21.3887","countryCode":"US","postalCode":"78766","adminName1":"Texas","placeName":"Austin","lat":30.267153},{"adminCode2":"453","adminCode1":"TX","adminName2":"Travis","lng":-97.7430608,"distance":"21.3887","countryCode":"US","postalCode":"78714","adminName1":"Texas","placeName":"Austin","lat":30.267153},{"adminCode2":"453","adminCode1":"TX","adminName2":"Travis","lng":-97.7430608,"distance":"21.3887","countryCode":"US","postalCode":"78715","adminName1":"Texas","placeName":"Austin","lat":30.267153},{"adminCode2":"453","adminCode1":"TX","adminName2":"Travis","lng":-97.7430608,"distance":"21.3887","countryCode":"US","postalCode":"78767","adminName1":"Texas","placeName":"Austin","lat":30.267153},{"adminCode2":"453","adminCode1":"TX","adminName2":"Travis","lng":-97.7430608,"distance":"21.3887","countryCode":"US","postalCode":"78713","adminName1":"Texas","placeName":"Austin","lat":30.267153},{"adminCode2":"453","adminCode1":"TX","adminName2":"Travis","lng":-97.7430608,"distance":"21.3887","countryCode":"US","postalCode":"78768","adminName1":"Texas","placeName":"Austin","lat":30.267153},{"adminCode2":"453","adminCode1":"TX","adminName2":"Travis","lng":-97.7430608,"distance":"21.3887","countryCode":"US","postalCode":"78799","adminName1":"Texas","placeName":"Austin","lat":30.267153},{"adminCode2":"453","adminCode1":"TX","adminName2":"Travis","lng":-97.818113,"distance":"22.44327","countryCode":"US","postalCode":"78746","adminName1":"Texas","placeName":"Austin","lat":30.2971},{"adminCode2":"491","adminCode1":"TX","adminName2":"Williamson","lng":-97.75112495084093,"distance":"23.44831","countryCode":"US","postalCode":"78628","adminName1":"Texas","placeName":"Georgetown","lat":30.641078819332606},{"adminCode2":"453","adminCode1":"TX","adminName2":"Travis","lng":-97.866633,"distance":"23.57233","countryCode":"US","postalCode":"78733","adminName1":"Texas","placeName":"Austin","lat":30.331355},{"adminCode2":"491","adminCode1":"TX","adminName2":"Williamson","lng":-97.8530686,"distance":"23.73588","countryCode":"US","postalCode":"78646","adminName1":"Texas","placeName":"Leander","lat":30.5788055},{"adminCode2":"453","adminCode1":"TX","adminName2":"Travis","lng":-97.670349,"distance":"23.84008","countryCode":"US","postalCode":"78742","adminName1":"Texas","placeName":"Austin","lat":30.231296},{"adminCode2":"453","adminCode1":"TX","adminName2":"Travis","lng":-97.85877,"distance":"23.91356","countryCode":"US","postalCode":"78716","adminName1":"Texas","placeName":"Austin","lat":30.316223},{"adminCode2":"491","adminCode1":"TX","adminName2":"Williamson","lng":-97.602552,"distance":"24.12121","countryCode":"US","postalCode":"78682","adminName1":"Texas","placeName":"Round Rock","lat":30.656817},{"adminCode2":"491","adminCode1":"TX","adminName2":"Williamson","lng":-97.602552,"distance":"24.12121","countryCode":"US","postalCode":"78680","adminName1":"Texas","placeName":"Round Rock","lat":30.656817},{"adminCode2":"491","adminCode1":"TX","adminName2":"Williamson","lng":-97.602552,"distance":"24.12121","countryCode":"US","postalCode":"78683","adminName1":"Texas","placeName":"Round Rock","lat":30.656817},{"adminCode2":"491","adminCode1":"TX","adminName2":"Williamson","lng":-97.857453,"distance":"24.38813","countryCode":"US","postalCode":"78641","adminName1":"Texas","placeName":"Leander","lat":30.583474},{"adminCode2":"453","adminCode1":"TX","adminName2":"Travis","lng":-97.900685,"distance":"24.40889","countryCode":"US","postalCode":"78732","adminName1":"Texas","placeName":"Austin","lat":30.375233},{"adminCode2":"453","adminCode1":"TX","adminName2":"Travis","lng":-97.722317,"distance":"24.54431","countryCode":"US","postalCode":"78741","adminName1":"Texas","placeName":"Austin","lat":30.231513},{"adminCode2":"453","adminCode1":"TX","adminName2":"Travis","lng":-97.765788,"distance":"24.73416","countryCode":"US","postalCode":"78704","adminName1":"Texas","placeName":"Austin","lat":30.242831},{"adminCode2":"491","adminCode1":"TX","adminName2":"Williamson","lng":-97.59286,"distance":"26.26822","countryCode":"US","postalCode":"78674","adminName1":"Texas","placeName":"Weir","lat":30.674667},{"adminCode2":"491","adminCode1":"TX","adminName2":"Williamson","lng":-97.4094438,"distance":"27.71141","countryCode":"US","postalCode":"76574","adminName1":"Texas","placeName":"Taylor","lat":30.5707551},{"adminCode2":"453","adminCode1":"TX","adminName2":"Travis","lng":-97.841423,"distance":"27.96597","countryCode":"US","postalCode":"78735","adminName1":"Texas","placeName":"Austin","lat":30.248978},{"adminCode2":"491","adminCode1":"TX","adminName2":"Williamson","lng":-97.367571,"distance":"28.36166","countryCode":"US","postalCode":"78615","adminName1":"Texas","placeName":"Coupland","lat":30.487161},{"adminCode2":"453","adminCode1":"TX","adminName2":"Travis","lng":-97.942721,"distance":"28.40926","countryCode":"US","postalCode":"78734","adminName1":"Texas","placeName":"Austin","lat":30.370457},{"adminCode2":"453","adminCode1":"TX","adminName2":"Travis","lng":-97.966945,"distance":"29.46988","countryCode":"US","postalCode":"78645","adminName1":"Texas","placeName":"Leander","lat":30.44901},{"adminCode2":"453","adminCode1":"TX","adminName2":"Travis","lng":-97.666701,"distance":"29.50206","countryCode":"US","postalCode":"78719","adminName1":"Texas","placeName":"Austin","lat":30.180243},{"adminCode2":"453","adminCode1":"TX","adminName2":"Travis","lng":-97.795599,"distance":"29.62998","countryCode":"US","postalCode":"78745","adminName1":"Texas","placeName":"Austin","lat":30.206298},{"adminCode2":"453","adminCode1":"TX","adminName2":"Travis","lng":-97.74723,"distance":"29.88166","countryCode":"US","postalCode":"78744","adminName1":"Texas","placeName":"Austin","lat":30.18764}]}